,direccion,clase_de_prestador,nit_ips,codigo_de_habilitacion,id_ips,nombre_ips,longitud_ips,latitud_ips,capacidad,numero_estacion,nombre_estacion,ubicacion_estacion,troncal_estacion,numero_vagones_estacion,numero_accesos_estacion,biciestacion_estacion,capacidad_biciestacion_estacion,tipo_estacion,biciparqueadero_estacion,latitud_estacion,longitud_estacion,distance,distancia,cerca_rank,dist_rank
18,AC 33 # 14 37,Instituciones - IPS,830099212,110010905601,4,CENTRO DE INVESTIGACIONES ONCOLOGICAS CLINICA SAN DIEGO CIOSAD S.A.S,-74.06983839615465,4.621247510792445,61.0,9115,Calle 34,Avenida Calle 34 - Calle 3,Caracas,3,2,0,0,SENCILLA,NO,4.62221301,-74.06958764,0.11089758972475858,0.11089758972475858,1.0,1.0
229,AC 13 N 65 -21,Instituciones - IPS,800149384,110010918632,9,CLINISANITAS DIAGNOSTICO ZONA IN,-74.11605885371635,4.63426464165194,179.0,5105,Pradera,Av. Americas -Carrera 64,Americas,4,1,1,32,SENCILLA,SI,4.62859531,-74.11905023,0.7122667514781805,0.7122667514781805,1.0,1.0
322,AC 145 No. 88-76,Instituciones - IPS,800149384,110010918603,630,CLINISANITAS SUBA,-74.08353828993906,4.737664289640285,179.0,3002,Suba - TV. 91,Av Suba Kr 90,Suba,2,1,0,0,SENCILLA,NO,4.73820209,-74.08603261,0.28280292961439885,0.28280292961439885,1.0,1.0
487,TRV 59 A 114 - 18 PISO 3,Instituciones - IPS,800149384,110010918614,637,LABORATORIO CLINICO SANITAS SALUD OCUPACIONAL,-74.06840229005266,4.696659679755972,179.0,3009,Suba - Calle 116,Av Suba Cll 114,Suba,2,1,0,0,SENCILLA,NO,4.69918067,-74.06975627,0.3179544217210342,0.3179544217210342,1.0,1.0
614,KR 7 32 - 12 LOCAL 304,Instituciones - IPS,800149384,110010918623,748,ODONTOSANITAS SAN MARTIN,-74.06770965034106,4.618808579763447,179.0,9115,Calle 34,Avenida Calle 34 - Calle 3,Caracas,3,2,0,0,SENCILLA,NO,4.62221301,-74.06958764,0.4320048674503569,0.4320048674503569,1.0,1.0
821,AK 14 42-66,Instituciones - IPS,800149384,110010918628,785,LABORATORIO TEUSAQUILLO,-74.0677070200739,4.630604669767957,179.0,9116,AV. 39,Avenida 39 - Avenida Calle,Caracas,3,2,0,0,SENCILLA,NO,4.62859306,-74.06823856,0.23130864525271147,0.23130864525271147,1.0,1.0
910,CALLE 16 # 6 -66 PISO 2,Instituciones - IPS,800149384,110010918635,982,CLINISANITAS CENTRO MEDICO EMPRESARIAL,-74.07227174001989,4.602637450372857,179.0,14004,Museo del Oro,carrera 2,Eje Ambiental,1,2,0,0,SENCILLA,NO,4.60118385,-74.07295785,0.17862871108603873,0.17862871108603873,1.0,1.0
1062,AC 26 SUR 68 I - 12 PISO 2,Instituciones - IPS,800149384,110010918639,1055,LABORATORIO UAP KENNEDY,-74.13319318020677,4.612184159818336,179.0,7005,Alquería,AutoSur-Kr48,NQS,2,1,0,0,SENCILLA,NO,4.59437209,-74.13441089,1.985205030531219,1.985205030531219,1.0,1.0
1296,AV 127 No. 20-78 LC 206 y 207,Instituciones - IPS,800149384,110010918643,1370,CLINISANITAS CENTRO DE ATENCIÓN INTEGRAL PARA LA MUJER,-74.05136808978381,4.706529620258821,179.0,2202,Calle 127,Calle 127,Autonorte,2,1,0,0,SENCILLA,NO,4.70524465,-74.05401073,0.3258541027532986,0.3258541027532986,1.0,1.0
1471,AC 134 7B 83 LC 6,Instituciones - IPS,800149384,110010918647,2077,CLINISANITAS DIAGNOSTICO EL BOSQUE,-74.03207532995624,4.711859999597484,179.0,2201,Prado,Calle 128 B,Autonorte,3,1,0,0,SENCILLA,NO,4.71393371,-74.05258664,2.2847080298910334,2.2847080298910334,1.0,1.0
1538,CR 21 NO. 166 34 P 2,Instituciones - IPS,800149384,110010918648,2078,LABORATORIO TOBERIN,-74.04415845026533,4.746944489873148,179.0,2101,Toberín,Calle 165,Autonorte,5,1,0,0,SENCILLA,NO,4.74733097,-74.04703429,0.3215663670150084,0.3215663670150084,1.0,1.0
1719,AC 13 NO. 65 21 LC 29,Instituciones - IPS,800149384,110010918649,2237,ODONTOSANITAS ZONA INDUSTRIAL,-74.1160588501231,4.63426463986116,179.0,5105,Pradera,Av. Americas -Carrera 64,Americas,4,1,1,32,SENCILLA,SI,4.62859531,-74.11905023,0.712266760612129,0.712266760612129,1.0,1.0
1874,CRA 59 NO. 152 19,Instituciones - IPS,800149384,110010918651,2548,CLINISANITAS COLINA CAMPESTRE,-74.06507047998636,4.73810108988188,179.0,3004,Gratamira,Av Suba Cl 135,Suba,2,1,0,0,SENCILLA,NO,4.72773094,-74.07459429,1.5631707210752934,1.5631707210752934,1.0,1.0
2028,"CALLE 14 No 62 - 04, Interior 1, Interior 2",Instituciones - IPS,800149384,110010918654,2764,CENTRAL DE URGENCIAS CLINICA COLSANITAS,-74.1125337603369,4.634456449598916,179.0,5107,Américas - Carrera 53A,Amï¿½ricas - KR 53A,Americas,4,1,0,0,SENCILLA,NO,4.62776126,-74.11111797,0.760828150568891,0.760828150568891,1.0,1.0
2142,"CR 18 # 16 - 46 Sur, PISO 3 y PISO 4",Instituciones - IPS,800149384,110010918656,2821,CLINISANITAS DIAGNOSTICO RESTREPO,-74.10022842018273,4.585568210319045,179.0,9105,Fucha,Calle 13 Sur - Calle 16 Su,Caracas,2,1,0,0,SENCILLA,NO,4.58322682,-74.09893378,0.29727739085691024,0.29727739085691024,1.0,1.0
2357,CALLE 77 # 12 A 11,Instituciones - IPS,800149384,110010918602,629,Odontosanitas El Lago,-74.0573434503901,4.662365410334054,179.0,9123,Calle 76,Calle 76 - Calle 74,Caracas,3,2,0,0,SENCILLA,NO,4.66406733,-74.06107216,0.4545127495199762,0.4545127495199762,1.0,1.0
2488,"CR. 21 NO. 127 - 03 / AC 127 21 - 60 CN 106, 107, 108, 109, 110 LC 107, 108, 109, 111",Instituciones - IPS,800149384,110010918608,634,CLINICA REINA SOFIA,-74.05188481959985,4.706862759756376,179.0,2202,Calle 127,Calle 127,Autonorte,2,1,0,0,SENCILLA,NO,4.70524465,-74.05401073,0.29644143364269265,0.29644143364269265,1.0,1.0
2637,AK 7 124 - 45 PISO 1,Instituciones - IPS,800149384,110010918610,635,LABORATORIO UAP USAQUEN,-74.0291232700999,4.700167239786761,179.0,2202,Calle 127,Calle 127,Autonorte,2,1,0,0,SENCILLA,NO,4.70524465,-74.05401073,2.815236108571455,2.815236108571455,1.0,1.0
2784,CL 36 # 28 50 / 28 42,Instituciones - IPS,800149384,110010918611,636,CLINISANITAS LA SOLEDAD,-74.07756877017871,4.625704119962588,179.0,6108,Concejo de Bogotá,Carrera38,Calle 26,2,1,0,0,SENCILLA,NO,4.62508709,-74.07960195,0.23555653123693696,0.23555653123693696,1.0,1.0
2871,TV 60 # 115 - 58 TO B OF 304 A LA 317 y TO C LC 103 Y 104,Instituciones - IPS,800149384,110010918624,757,CLINISANITAS ILARCO,-74.06931673009612,4.699264549688073,179.0,3009,Suba - Calle 116,Av Suba Cll 114,Suba,2,1,0,0,SENCILLA,NO,4.69918067,-74.06975627,0.04959523834785476,0.04959523834785476,1.0,1.0
3116,Carrera 89a # 79 - 03 4° piso,Instituciones - IPS,800149384,110010918634,973,CLINISANITAS CALLE 80,-74.10347350958645,4.704416729973929,179.0,4002,Carrera 90,Carrera 90,Calle 80,1,1,0,0,SENCILLA,NO,4.70473089,-74.10458038,0.1275409692964143,0.1275409692964143,1.0,1.0
3251,CL 75 # 22 66 PI 2,Instituciones - IPS,800149384,110010918636,1023,LABORATORIO UAP URILAR HEROES,-74.06440680016287,4.665228920129933,179.0,9123,Calle 76,Calle 76 - Calle 74,Caracas,3,2,0,0,SENCILLA,NO,4.66406733,-74.06107216,0.3914878779899275,0.3914878779899275,1.0,1.0
3382,AC 127 No 20-51 PISOS 2 y 3,Instituciones - IPS,800149384,110010918641,1227,PROGRAMA DE HOSPITALIZACION DOMICILIARIA,-74.05115732974677,4.706006770233981,179.0,2202,Calle 127,Calle 127,Autonorte,2,1,0,0,SENCILLA,NO,4.70524465,-74.05401073,0.3273727752900808,0.3273727752900808,1.0,1.0
3550,CARRERA 45 NO 103 65,Instituciones - IPS,800149384,110010918653,2735,CLINICA COLSANITAS 103,-74.05705118980062,4.690372430213911,179.0,2205,Calle 106,Calle 106,Autonorte,4,1,0,0,SENCILLA,NO,4.69280155,-74.05614686,0.2880992568238275,0.2880992568238275,1.0,1.0
3616,KR 70 C #115 A 15,Instituciones - IPS,800149384,110010918604,631,CLINISANITAS MORATO,-74.07204376017717,4.698928079636221,179.0,3009,Suba - Calle 116,Av Suba Cll 114,Suba,2,1,0,0,SENCILLA,NO,4.69918067,-74.06975627,0.25505353057708835,0.25505353057708835,1.0,1.0
3841,AK 45 No. 108 a 50 PISO 3,Instituciones - IPS,800149384,110010918605,632,CLINISANITAS DIAGNOSTICO,-74.05506955030131,4.69605412976604,179.0,2204,Pepe Sierra,Calle 116,Autonorte,2,1,0,0,SENCILLA,NO,4.69785859,-74.05531281,0.20244975517041333,0.20244975517041333,1.0,1.0
3998,CRA 21 # 40 77,Instituciones - IPS,800149384,110010918606,633,ODONTOSANITAS,-74.07390677983817,4.631173989923602,179.0,7108,AV. El Dorado,Kr 30 Av 28,NQS,1,1,0,0,SENCILLA,NO,4.63026213,-74.07976893,0.6575777630415892,0.6575777630415892,1.0,1.0
4063,KR 69 C # 99 - 45,Instituciones - IPS,800149384,110010918622,726,LABORATORIO CENTRAL DE REFERENCIA,-74.0748067004117,4.6934888596284665,179.0,3009,Suba - Calle 116,Av Suba Cll 114,Suba,2,1,0,0,SENCILLA,NO,4.69918067,-74.06975627,0.8448807418817394,0.8448807418817394,1.0,1.0
4302,AVENIDA CALLE 127 No 20-78 CONSULTORIOS 201-202-203 Y 204,Instituciones - IPS,800149384,110010918629,813,UNIDAD RENAL SANITAS,-74.03210385955136,4.712466790126343,179.0,2201,Prado,Calle 128 B,Autonorte,3,1,0,0,SENCILLA,NO,4.71393371,-74.05258664,2.2757327481075125,2.2757327481075125,1.0,1.0
4334,"CL 23 No. 66 - 46 Int. 5, Int.4. Piso 3 CN 201, 202, 203, 204, 205, 206, 208, 511, 512, 513, 514, 704, 708, 712, 719, 720, 721, 722, 723, 725, 727, 814, 911, 920, 921, 927, 1009, 1013, 1214, 301, 305, 320, 919 UN 103",Instituciones - IPS,800149384,110010918630,901,CLINICA UNIVERSITARIA COLOMBIA,-74.10640329032543,4.64804106970914,179.0,6102,Salitre - El Greco,Carrera 66,Calle 26,4,1,0,0,SENCILLA,NO,4.65130342,-74.10185856,0.6207204925672339,0.6207204925672339,1.0,1.0
4564,Carrera 24 C No 48-94 Sur Piso 3 Centro Comercial Ciudad Tunal,Instituciones - IPS,800149384,110010918637,1024,UAP PREMISALUD,-74.13032355964238,4.577896759815052,179.0,8002,Biblioteca,Calle 48A Sur,Tunal,2,1,0,0,SENCILLA,NO,4.57032486,-74.13025087,0.8419953936068231,0.8419953936068231,1.0,1.0
4641,KR 14 96 -22,Instituciones - IPS,800149384,110010918646,1430,CLINISANITAS CALLE 96,-74.04844703977108,4.681261290353163,179.0,2300,Calle 100,Calle 97,Autonorte,3,2,0,0,SENCILLA,NO,4.68434548,-74.05750794,1.0611104330245857,1.0611104330245857,1.0,1.0
4872,AK 45 NO. 123 14 P 2,Instituciones - IPS,800149384,110010918650,2290,LABORATORIO UAP SANTA BARBARA,-74.05365313976192,4.704355659628111,179.0,2202,Calle 127,Calle 127,Autonorte,2,1,0,0,SENCILLA,NO,4.70524465,-74.05401073,0.10649864373617113,0.10649864373617113,1.0,1.0
5021,AC 127 20 56,Instituciones - IPS,800149384,110010918655,2816,CLINICA PEDIATRICA,-74.05085663038352,4.706675739904666,179.0,2202,Calle 127,Calle 127,Autonorte,2,1,0,0,SENCILLA,NO,4.70524465,-74.05401073,0.3840557705923412,0.3840557705923412,1.0,1.0
5118,KR 13 B # 161-85,Instituciones - IPS,860035992,110010911103,19,FUNDACIÓN CARDIOINFANTIL-INSTITUTO DE CARDIOLOGÍA,-74.03440921504814,4.740787460221625,196.0,2102,Calle 161,Calle 160,Autonorte,4,1,0,0,SENCILLA,NO,4.74154193,-74.04796835,1.5048882578423768,1.5048882578423768,1.0,1.0
5267,CL 163 A # 13 B 60,Instituciones - IPS,860035992,110010911101,614,FUNDACION CARDIO INFANTIL INSTITUTO DE CARDIOLOGIA,-74.03449838002663,4.741346699750187,196.0,2102,Calle 161,Calle 160,Autonorte,4,1,0,0,SENCILLA,NO,4.74154193,-74.04796835,1.4928245145018448,1.4928245145018448,1.0,1.0
5484,CRA 4 D # 192 A -35,Instituciones - IPS,900971006,110013029128,80,UNIDAD DE SERVICIOS DE SALUD BUENA VISTA,-74.02550148835147,4.768695043342347,125.0,2502,Terminal,Calle 190,Autonorte,4,1,0,0,SENCILLA,NO,4.76963114,-74.04340206,1.9862905183652992,1.9862905183652992,1.0,1.0
5517,TRANSVERSAL 100 A # 80 A - 50,Instituciones - IPS,900971006,110013029103,2860,UNIDAD DE SERVICIOS DE SALUD ENGATIVÁ CALLE 80,-74.1093294499555,4.711280709753267,125.0,4000,Portal de la 80,Carrera 96,Calle 80,0,0,1,353,CABECERA,SI,4.70952296,-74.11052456,0.23609855163397722,0.23609855163397722,1.0,1.0
5666,CARRERA 107 # 75 B - 08,Instituciones - IPS,900971006,110013029108,2864,UNIDAD DE SERVICIOS DE SALUD GARCES NAVAS,-74.12059418976939,4.710457109777766,125.0,4000,Portal de la 80,Carrera 96,Calle 80,0,0,1,353,CABECERA,SI,4.70952296,-74.11052456,1.1207346236999043,1.1207346236999043,1.0,1.0
5943,CARRERA 73 A # 81 B -10,Instituciones - IPS,900971006,110013029111,2865,UNIDAD DE SERVICIOS DE SALUD MINUTO DE DIOS,-74.08986014961505,4.698448820374076,125.0,4101,Minuto de Dios,Carrera 73 A,Calle 80,1,1,0,0,SENCILLA,NO,4.69669576,-74.091492,0.2658999712856402,0.2658999712856402,1.0,1.0
6026,CARRERA 97 A # 65 - 63,Instituciones - IPS,900971006,110013029112,2866,UNIDAD DE SERVICIOS DE SALUD ALAMOS,-74.1206427796431,4.695528819652537,125.0,6000,Portal El Dorado,carrera 87,Calle 26,0,0,1,532,CABECERA,SI,4.68113815,-74.12098887,1.600629055804398,1.600629055804398,1.0,1.0
6133,CARRERA 92 Nº 147C-30,Instituciones - IPS,900971006,110013029115,2869,UNIDAD DE SERVICIOS DE SALUD SUBA,-74.08414343014873,4.7435831699078355,125.0,3002,Suba - TV. 91,Av Suba Kr 90,Suba,2,1,0,0,SENCILLA,NO,4.73820209,-74.08603261,0.6339148716766291,0.6339148716766291,1.0,1.0
6313,TRANSVERSAL 116C Nº133-18,Instituciones - IPS,900971006,110013029116,2870,UNIDAD DE SERVICIOS DE SALUD GAITANA I,-74.11028343024452,4.740901640268511,125.0,3000,Portal de Suba,Av Suba Av C. Cali,Suba,0,0,1,324,CABECERA,SI,4.74653621,-74.09625691,1.6758595201020074,1.6758595201020074,1.0,1.0
6462,CALLE 144 141A - 50 IN 67,Instituciones - IPS,900971006,110013029120,2874,UNIDAD DE SERVICIOS DE SALUD SAN CARLOS,-74.11434564968856,4.752318150344692,125.0,3000,Portal de Suba,Av Suba Av C. Cali,Suba,0,0,1,324,CABECERA,SI,4.74653621,-74.09625691,2.1050529578616213,2.1050529578616213,1.0,1.0
6608,CRA 1 BIS # 163-10,Instituciones - IPS,900971006,110013029127,2878,UNIDAD DE SERVICIOS DE SALUD SANTA CECILIA,-74.01669072041666,4.734518010183467,125.0,2102,Calle 161,Calle 160,Autonorte,4,1,0,0,SENCILLA,NO,4.74154193,-74.04796835,3.5529361698161788,3.5529361698161788,1.0,1.0
6717,CRA 6 # 180C-14,Instituciones - IPS,900971006,110013029129,2879,UNIDAD DE SERVICIOS DE SALUD CODITO,-74.0240748702555,4.757494020156799,125.0,2001,Calle 187,Calle 184,Autonorte,4,1,0,0,SENCILLA,NO,4.76178408,-74.04472315,2.337265099498047,2.337265099498047,1.0,1.0
6906,CALLE 164 # 7F-10,Instituciones - IPS,900971006,110013029130,2880,UNIDAD DE SERVICIOS DE SALUD SAN CRISTÓBAL,-74.02512905042794,4.739944509714474,125.0,2102,Calle 161,Calle 160,Autonorte,4,1,0,0,SENCILLA,NO,4.74154193,-74.04796835,2.5371512543147854,2.5371512543147854,1.0,1.0
7119,CRA 6 A # 119B-14,Instituciones - IPS,900971006,110013029133,2883,UNIDAD DE SERVICIOS DE SALUD USAQUÉN,-74.03049903995752,4.696348669863934,125.0,2204,Pepe Sierra,Calle 116,Autonorte,2,1,0,0,SENCILLA,NO,4.69785859,-74.05531281,2.7550194317183045,2.7550194317183045,1.0,1.0
7156,CALLE 88 # 95 F - 00,Instituciones - IPS,900971006,110013029107,2886,UNIDAD DE SERVICIOS DE SALUD BACHUÉ,-74.10338728030231,4.716026869630921,125.0,4000,Portal de la 80,Carrera 96,Calle 80,0,0,1,353,CABECERA,SI,4.70952296,-74.11052456,1.0717352836906338,1.0717352836906338,1.0,1.0
7386,CALLE 75 # 69 H - 08,Instituciones - IPS,900971006,110013029105,2862,UNIDAD DE SERVICIOS DE SALUD FERIAS,-74.08623682995086,4.685978129896145,125.0,4103,Ferias,Transversal  67 Bis,Calle 80,1,1,0,0,SENCILLA,NO,4.69014066,-74.08402878,0.5235566046336524,0.5235566046336524,1.0,1.0
7450,CALLE 83 # 85 A - 17,Instituciones - IPS,900971006,110013029113,2867,UNIDAD DE SERVICIOS DE SALUD ESPAÑOLA,-74.09908165963711,4.7045002702733605,125.0,4003,AV. Cali,Carrera 86,Calle 80,1,1,0,0,INTERMEDIA,NO,4.70249985,-74.10025325,0.25755673222079245,0.25755673222079245,1.0,1.0
7654,KR 104 Nº 152C-50,Instituciones - IPS,900971006,110013029114,2868,UNIDAD DE SERVICIOS DE SALUD CENTRO DE SERVICIOS ESPECIALIZADO,-74.09175639975504,4.7534265201695955,125.0,3000,Portal de Suba,Av Suba Av C. Cali,Suba,0,0,1,324,CABECERA,SI,4.74653621,-74.09625691,0.9141824333411309,0.9141824333411309,1.0,1.0
7772,CARRERA 94B Nº129B-04,Instituciones - IPS,900971006,110013029118,2872,UNIDAD DE SERVICIOS DE SALUD RINCON,-74.0931433796891,4.726053680375908,125.0,3002,Suba - TV. 91,Av Suba Kr 90,Suba,2,1,0,0,SENCILLA,NO,4.73820209,-74.08603261,1.5638718678646693,1.5638718678646693,1.0,1.0
7952,TRANSVERSAL 126 Nº133-38,Instituciones - IPS,900971006,110013029119,2873,UNIDAD DE SERVICIOS DE SALUD GAITANA II,-74.10962048973452,4.7414448504125675,125.0,3000,Portal de Suba,Av Suba Av C. Cali,Suba,0,0,1,324,CABECERA,SI,4.74653621,-74.09625691,1.5853982992015856,1.5853982992015856,1.0,1.0
8166,CRA 18 A # 187-91,Instituciones - IPS,900971006,110013029132,2882,UNIDAD DE SERVICIOS DE SALUD VERBENAL,-74.03966663040129,4.766052850266702,125.0,2502,Terminal,Calle 190,Autonorte,4,1,0,0,SENCILLA,NO,4.76963114,-74.04340206,0.5741491837338495,0.5741491837338495,1.0,1.0
8243,CALLE 165 # 7 06,Instituciones - IPS,900971006,110013029101,2858,UNIDAD DE SERVICIOS DE SALUD SIMÓN BOLÍVAR,-74.02305253985145,4.7421762396392495,125.0,2101,Toberín,Calle 165,Autonorte,5,1,0,0,SENCILLA,NO,4.74733097,-74.04703429,2.718620517434888,2.718620517434888,1.0,1.0
8365,CARRERA 65 # 103 66,Instituciones - IPS,900971006,110013029102,2859,UNIDAD DE SERVICIOS DE SALUD FRAY BARTOLOMÉ DE LAS CASAS,-74.06764683025492,4.692863620052391,125.0,3010,Puentelargo,Av Suba Tv 48,Suba,2,1,0,0,SENCILLA,NO,4.69319361,-74.06707121,0.07359172608884725,0.07359172608884725,1.0,1.0
8497,CALLE 64 C # 121 - 76,Instituciones - IPS,900971006,110013029104,2861,UNIDAD DE SERVICIOS DE SALUD EMAUS,-74.14043568997982,4.715299659688566,125.0,4000,Portal de la 80,Carrera 96,Calle 80,0,0,1,353,CABECERA,SI,4.70952296,-74.11052456,3.376386809290711,3.376386809290711,1.0,1.0
8785,CARRERA 74 A # 69 A - 38,Instituciones - IPS,900971006,110013029106,2863,UNIDAD DE SERVICIOS DE SALUD BOYACÁ REAL,-74.09932952009535,4.68608898032902,125.0,4100,Granja - Carrera 77,Carrera 77 Bis,Calle 80,3,2,0,0,INTERMEDIA,NO,4.6984667,-74.09483848,1.4635652343403054,1.4635652343403054,1.0,1.0
8921,CALLE 128A Nº53A-17,Instituciones - IPS,900971006,110013029117,2871,UNIDAD DE SERVICIOS DE SALUD PRADO VERANIEGO,-74.06071820980844,4.713666610082459,125.0,2201,Prado,Calle 128 B,Autonorte,3,1,0,0,SENCILLA,NO,4.71393371,-74.05258664,0.9016203058690646,0.9016203058690646,1.0,1.0
8995,CALLE 136A Nº153A-21,Instituciones - IPS,900971006,110013029121,2875,UNIDAD DE SERVICIOS DE SALUD J.B SCALABRINI,-74.12488178034853,4.743764340163755,125.0,3000,Portal de Suba,Av Suba Av C. Cali,Suba,0,0,1,324,CABECERA,SI,4.74653621,-74.09625691,3.1869700346107326,3.1869700346107326,1.0,1.0
9116,Calle 66 No 15-41,Instituciones - IPS,900971006,110013029123,2876,UNIDAD DE SERVICIOS DE SALUD CHAPINERO,-74.06567518002156,4.653525510411811,125.0,9121,Flores,Calle 69  - Calle 67,Caracas,2,2,0,0,SENCILLA,NO,4.65471326,-74.06308827,0.31566031174287734,0.31566031174287734,1.0,1.0
9286,CALLE 165 # 7-38,Instituciones - IPS,900971006,110013029126,2877,UNIDAD DE SERVICIOS DE SALUD SERVITÁ,-74.02314927044125,4.741538880266705,125.0,2101,Toberín,Calle 165,Autonorte,5,1,0,0,SENCILLA,NO,4.74733097,-74.04703429,2.724025185808173,2.724025185808173,1.0,1.0
9439,CRA 16C # 160-44,Instituciones - IPS,900971006,110013029131,2881,UNIDAD DE SERVICIOS DE SALUD ORQUÍDEAS,-74.03994305009904,4.739559849624899,125.0,2102,Calle 161,Calle 160,Autonorte,4,1,0,0,SENCILLA,NO,4.74154193,-74.04796835,0.9162231974034704,0.9162231974034704,1.0,1.0
9536,CALLE 91 # 89 A -20,Instituciones - IPS,900971006,110013029109,2884,UNIDAD DE SERVICIOS DE SALUD QUIRIGUA,-74.09575194983196,4.713338509779946,125.0,4003,AV. Cali,Carrera 86,Calle 80,1,1,0,0,INTERMEDIA,NO,4.70249985,-74.10025325,1.3043584630761633,1.3043584630761633,1.0,1.0
9696,CARRERA 69 # 68 A - 34,Instituciones - IPS,900971006,110013029110,2885,UNIDAD DE SERVICIOS DE SALUD BELLAVISTA,-74.09059994998077,4.677768669655824,125.0,4104,AV. 68,Carrera 60,Calle 80,1,1,0,0,SENCILLA,NO,4.68580261,-74.08035668,1.4445490343524356,1.4445490343524356,1.0,1.0
9856,AV 100 No. 18 A 51,Instituciones - IPS,860006626,110010144301,235,CLINICA BARRAQUER,-74.0512058199075,4.685798220390471,10.0,2300,Calle 100,Calle 97,Autonorte,3,2,0,0,SENCILLA,NO,4.68434548,-74.05750794,0.7168598585930707,0.7168598585930707,1.0,1.0
10094,Avenida Calle 6 No. 49 - 21,Instituciones - IPS,800215908,110010485704,344,CAFI PUENTE ARANDA,-74.10705640955443,4.625279430426861,116.0,12000,Puente Aranda,calle 13 carrera 47,Americas,2,1,0,0,SENCILLA,NO,4.62556721,-74.10461377,0.27260916545639124,0.27260916545639124,1.0,1.0
10142,AK 45 # 137 48,Instituciones - IPS,800215908,110010485717,832,CAFI CALLE 138,-74.05054292970314,4.723114389822485,116.0,2200,Alcalá,Calle 137,Autonorte,3,2,0,0,SENCILLA,NO,4.72076577,-74.05144057,0.2794581563802862,0.2794581563802862,1.0,1.0
10404,CL 106 # 19 19,Instituciones - IPS,800215908,110010485718,833,CEMES 106,-74.05123203005255,4.692604020412252,116.0,2205,Calle 106,Calle 106,Autonorte,4,1,0,0,SENCILLA,NO,4.69280155,-74.05614686,0.545114854925231,0.545114854925231,1.0,1.0
10553,AUTOPISTA NORTE # 104 A - 33,Instituciones - IPS,800215908,110010485721,2691,CLINICA ESIMED JORGE PIÑEROS CORPAS,-74.05671724019543,4.69237239983357,116.0,2205,Calle 106,Calle 106,Autonorte,4,1,0,0,SENCILLA,NO,4.69280155,-74.05614686,0.07920061415571207,0.07920061415571207,1.0,1.0
10619,DIAGONAL 115 A # 70 D - 68,Instituciones - IPS,800215908,110010485722,2693,CEMES MORATO,-74.07463085968641,4.698265680270244,116.0,3009,Suba - Calle 116,Av Suba Cll 114,Suba,2,1,0,0,SENCILLA,NO,4.69918067,-74.06975627,0.5497055190068497,0.5497055190068497,1.0,1.0
10851,AUTOPISTA NORTE NO.103B-03,Instituciones - IPS,800215908,110010485725,2697,UNIDAD DE DIAGNOSTICO AUTOPISTA NORTE ESIMED,-74.05697802022411,4.690799410027048,116.0,2205,Calle 106,Calle 106,Autonorte,4,1,0,0,SENCILLA,NO,4.69280155,-74.05614686,0.24093068872683393,0.24093068872683393,1.0,1.0
10928,CALLE 5 # 30 - 18,Instituciones - IPS,800215908,110010485731,2698,CLINICA ESIMED VERAGUAS,-74.09933416977528,4.6054102799171,116.0,7112,Comuneros,KR 30 -Cl 6A,NQS,2,2,0,0,SENCILLA,NO,4.60570801,-74.09855967,0.09200502593965254,0.09200502593965254,1.0,1.0
11130,"AC 127 # 16A-27: PISO 1 SECTOR ORIENTAL Y SECTOR OCCIDENTAL- PISO 2 SECTOR SURORIENTAL Y SECTOR SUROCCIDENTAL- PISO 3- PISO 4 CS 401, 402, 405A, 405B Y 421)- PISO 5 SECTOR ORIENTAL- PISO 6 SECTOR ORIENTAL Y PISO 7.",Instituciones - IPS,800215908,110010485730,2701,CLINICA ESIMED SANTA BIBIANA,-74.0448741398488,4.703991669942181,116.0,2202,Calle 127,Calle 127,Autonorte,2,1,0,0,SENCILLA,NO,4.70524465,-74.05401073,1.0220603092377356,1.0220603092377356,1.0,1.0
11203,Carrera 7 # 55-37,Instituciones - IPS,800215908,110010485711,347,CAFI CALLE 56,-74.06251290001568,4.641908290390032,116.0,9119,Calle 57,Calle 57 - Calle 54,Caracas,3,2,0,0,SENCILLA,NO,4.64379318,-74.06558740000001,0.40004568881801933,0.40004568881801933,1.0,1.0
11346,CALLE 100 NO. 19-05,Instituciones - IPS,800215908,110010485719,2690,CENTRAL DE URGENCIAS Y ESPECIALISTAS CALLE 100 ESIMED,-74.0524161497342,4.685508019901715,116.0,2300,Calle 100,Calle 97,Autonorte,3,2,0,0,SENCILLA,NO,4.68434548,-74.05750794,0.5789068036220555,0.5789068036220555,1.0,1.0
11546,CARRERA 17 # 24 - 44,Instituciones - IPS,800215908,110010485727,2695,CLINICA ESIMED CENTRO,-74.07483359956457,4.613901830089392,116.0,9113,Calle 22,Calle 24 - Calle 22,Caracas,3,2,0,0,SENCILLA,NO,4.61212995,-74.07441784,0.2023410689594254,0.2023410689594254,1.0,1.0
11644,AUTONORTE NO.94-31,Instituciones - IPS,800215908,110010485728,2700,UNIDAD INTEGRAL DE ALTO RIESGO OBSTETRICO ESIMED,-74.05837009001256,4.6823865796123005,116.0,2300,Calle 100,Calle 97,Autonorte,3,2,0,0,SENCILLA,NO,4.68434548,-74.05750794,0.23785418963187763,0.23785418963187763,1.0,1.0
11907,KR 89 A No.77A - 50,Instituciones - IPS,800215908,110010485703,343,CAFI CALLE 80,-74.10363502038633,4.7037669898518235,116.0,4002,Carrera 90,Carrera 90,Calle 80,1,1,0,0,SENCILLA,NO,4.70473089,-74.10458038,0.14987810694884315,0.14987810694884315,1.0,1.0
11976,KR 18 No.15 - 30 SUR,Instituciones - IPS,800215908,110010485708,345,CAFI RESTREPO,-74.0996038404303,4.586582920211044,116.0,9105,Fucha,Calle 13 Sur - Calle 16 Su,Caracas,2,1,0,0,SENCILLA,NO,4.58322682,-74.09893378,0.38049988692527004,0.38049988692527004,1.0,1.0
12200,CL 26 SUR 78 07,Instituciones - IPS,800215908,110010485709,346,CAFI KENNEDY,-74.14727246038342,4.6246878998439716,116.0,5100,Banderas,Av. Americas -Carrera 78,Americas,0,2,1,101,INTERMEDIA,SI,4.63139347,-74.14723714,0.7456356577596123,0.7456356577596123,1.0,1.0
12341,AVENIDA 19 No. 106 -30,Instituciones - IPS,800215908,110010485714,348,CAFI CALLE 106,-74.05054040992879,4.692943749734161,116.0,2205,Calle 106,Calle 106,Autonorte,4,1,0,0,SENCILLA,NO,4.69280155,-74.05614686,0.6215200363307698,0.6215200363307698,1.0,1.0
12481,CARRERA 10 # 1C - 07 SUR,Instituciones - IPS,800215908,110010485724,2689,CLINICA ESIMED POLICARPA,-74.08665750021864,4.587326639741046,116.0,10004,Policarpa,Kra 10- Cl3 sur,Cr 7-10,2,2,0,0,SENCILLA,NO,4.58653979,-74.08655036,0.08829592265960065,0.08829592265960065,1.0,1.0
12639,AUTOPISTA NORTE # 103 B - 95,Instituciones - IPS,800215908,110010485720,2692,CAP CENTRO DE ATENCIÓN PRIORITARIA ESIMED,-74.05689598966563,4.6913080504216085,116.0,2205,Calle 106,Calle 106,Autonorte,4,1,0,0,SENCILLA,NO,4.69280155,-74.05614686,0.1856649339358728,0.1856649339358728,1.0,1.0
12687,CARRERA 45 # 100 - 74,Instituciones - IPS,800215908,110010485723,2694,TORRE DE ESPECIALISTAS ESIMED AUTOPISTA NORTE,-74.0563590899765,4.688202169661672,116.0,2300,Calle 100,Calle 97,Autonorte,3,2,0,0,SENCILLA,NO,4.68434548,-74.05750794,0.4473451042205852,0.4473451042205852,1.0,1.0
12824,CARRERA 12 # 138 - 91,Instituciones - IPS,800215908,110010485726,2696,CLINICA ESIMED BOGOTA NORTE,-74.0378368897283,4.7195643298109315,116.0,2200,Alcalá,Calle 137,Autonorte,3,2,0,0,SENCILLA,NO,4.72076577,-74.05144057,1.5134378553627605,1.5134378553627605,1.0,1.0
13085,CALLE 74 # 20 C - 19,Instituciones - IPS,800215908,110010485729,2699,CLINICA ESIMED SANTA ROSA DE LIMA,-74.06394449028673,4.663097229991093,116.0,9123,Calle 76,Calle 76 - Calle 74,Caracas,3,2,0,0,SENCILLA,NO,4.66406733,-74.06107216,0.3361111391187735,0.3361111391187735,1.0,1.0
13134,CR 45 NO. 94-67,Instituciones - IPS,800215908,110010485733,2702,CLINICA ESIMED MATERNO INFANTIL,-74.05852690981003,4.682992220239579,116.0,2300,Calle 100,Calle 97,Autonorte,3,2,0,0,SENCILLA,NO,4.68434548,-74.05750794,0.1881360538674826,0.1881360538674826,1.0,1.0
13341,AV 68 N°13 71,Instituciones - IPS,800215908,110010485732,2710,CENTRO DE ATENCION DE URGENCIAS AV. 68 ESIMED,-74.11704433971902,4.638202029689428,116.0,5105,Pradera,Av. Americas -Carrera 64,Americas,4,1,1,32,SENCILLA,SI,4.62859531,-74.11905023,1.0911072841653855,1.0911072841653855,1.0,1.0
13415,Kr 15 No. 51 - 35,Instituciones - IPS,860013570,110010559701,385,Centro de Atención en Salud Cafam Calle 51,-74.06811967018281,4.638939689897959,10.0,9118,Marly,Calle 51 - Calle 49,Caracas,3,2,0,0,SENCILLA,NO,4.63951515,-74.06637045,0.20415428469452213,0.20415428469452213,1.0,1.0
13561,AK 68 No.90-88,Instituciones - IPS,860013570,110010559704,388,Centro de Atención en Salud Cafam Floresta,-74.07480438006333,4.685898209813757,10.0,4105,Carrera 53,Carrera 53,Calle 80,1,1,0,0,SENCILLA,NO,4.68193956,-74.07736461,0.5237030483628272,0.5237030483628272,1.0,1.0
13839,CRA 78 K 37 A 53 SUR,Instituciones - IPS,860013570,110010559705,389,Centro de Atención en Salud Cafam Kennedy,-74.15429278983724,4.6236398703661985,10.0,5100,Banderas,Av. Americas -Carrera 78,Americas,0,2,1,101,INTERMEDIA,SI,4.63139347,-74.14723714,1.163974956715227,1.163974956715227,1.0,1.0
13912,TV 114 # 142 A 90,Instituciones - IPS,860013570,110010559711,922,Centro de Atención en Salud Cafam Suba,-74.10299942998344,4.747742329999327,10.0,3000,Portal de Suba,Av Suba Av C. Cali,Suba,0,0,1,324,CABECERA,SI,4.74653621,-74.09625691,0.7591033945707294,0.7591033945707294,1.0,1.0
14146,Kr. 45 Nº 146 - 48 piso 2,Instituciones - IPS,860013570,110010559714,1229,Centro de Atención en Salud Cafam Granada Hills,-74.0496990900545,4.7293496798840655,10.0,2104,Calle 146,Calle 146,Autonorte,3,1,0,0,SENCILLA,NO,4.73064684,-74.04987147,0.14549707054657077,0.14549707054657077,1.0,1.0
14160,Carrera 16 Nº 52-35,Instituciones - IPS,860013570,110010559719,1570,"Laboratorio Clínico CAFAM, Central de Procesamiento",-74.0687451302842,4.64017122986806,10.0,9118,Marly,Calle 51 - Calle 49,Caracas,3,2,0,0,SENCILLA,NO,4.63951515,-74.06637045,0.27311084835480526,0.27311084835480526,1.0,1.0
14315,Av. Cra. 68 No. 90-88 Cafam Floresta Mundo Comercial Local 10-13,Instituciones - IPS,860013570,110010559725,1838,Óptica Cafam Floresta,-74.07599232027988,4.686080089876407,10.0,4104,AV. 68,Carrera 60,Calle 80,1,1,0,0,SENCILLA,NO,4.68580261,-74.08035668,0.4846556717414838,0.4846556717414838,1.0,1.0
14475,"Carrera 46 N° 95-56 Consultorios: 201, 202, 203, 204, 205, 303, 304, 306 y 405",Instituciones - IPS,860013570,110010559732,2824,Centro de Cardiologia Cafam La Castellana,-74.05905641995763,4.6842764797168766,10.0,2300,Calle 100,Calle 97,Autonorte,3,2,0,0,SENCILLA,NO,4.68434548,-74.05750794,0.1717794170936223,0.1717794170936223,1.0,1.0
14607,Calle 51 No. 15- 34,Instituciones - IPS,860013570,110010559702,386,Centro de Atención en Salud Cafam Clínica,-74.06811967018281,4.638939689897959,10.0,9118,Marly,Calle 51 - Calle 49,Caracas,3,2,0,0,SENCILLA,NO,4.63951515,-74.06637045,0.20415428469452213,0.20415428469452213,1.0,1.0
14887,TV 94 Nº 82 20,Instituciones - IPS,860013570,110010559703,387,Centro de Atención en Salud Cafam Quirigua,-74.10435355044272,4.708103400017053,10.0,4002,Carrera 90,Carrera 90,Calle 80,1,1,0,0,SENCILLA,NO,4.70473089,-74.10458038,0.3758475547559481,0.3758475547559481,1.0,1.0
15021,Calle 27 Nº 26- 24 Sur,Instituciones - IPS,860013570,110010559713,1228,Centro de Atención en Salud Cafam Centenario,-74.11084534981094,4.586714489671007,10.0,9103,Olaya,Calle 24 Sur - Calle 27 Su,Caracas,2,1,0,0,SENCILLA,NO,4.57893083,-74.10729408,0.9508067638110359,0.9508067638110359,1.0,1.0
15153,Calle 127 Nº 21-85,Instituciones - IPS,860013570,110010559722,1813,Centro de Atencion en Salud CAFAM Calle 127,-74.05276103992124,4.7059599503099365,10.0,2202,Calle 127,Calle 127,Autonorte,2,1,0,0,SENCILLA,NO,4.70524465,-74.05401073,0.15970586222798996,0.15970586222798996,1.0,1.0
15214,cra 5 no 15 80 piso 2,Instituciones - IPS,860013570,110010559727,2177,Centro de Atención en Salud Cafam Procuraduría,-74.07143303963295,4.601315840264245,10.0,14004,Museo del Oro,carrera 2,Eje Ambiental,1,2,0,0,SENCILLA,NO,4.60118385,-74.07295785,0.1696408103700619,0.1696408103700619,1.0,1.0
15465,Carrera 17 N° 90 - 13,Instituciones - IPS,860013570,110010559730,2593,Centro de Atención en Salud Cafam Calle 90,-74.0545912198704,4.675456359660089,10.0,2302,Virrey,Calle 90,Autonorte,3,1,0,0,SENCILLA,NO,4.67739343,-74.05858701,0.4924372985544054,0.4924372985544054,1.0,1.0
15630,KR 13 # 48-47,Instituciones - IPS,860013570,110010559712,1151,Centro de Atención en Salud Cafam Calle 48,-74.06624133963611,4.6357741397773555,10.0,9117,Calle 45,Calle 45 - Calle 42A,Caracas,3,2,0,0,SENCILLA,NO,4.633374099999999,-74.06738051,0.295230962748545,0.295230962748545,1.0,1.0
15775,Calle 134 No. 7-83 modulo 211 ( Torre 2 piso 1 modulo 1) y modulo 212 ( Torre 2 piso 1 modulo 2),Instituciones - IPS,860013570,110010559726,1921,Centro de Atención en Salud Cafam El Bosque,-74.03016522959122,4.711836589832858,10.0,2201,Prado,Calle 128 B,Autonorte,3,1,0,0,SENCILLA,NO,4.71393371,-74.05258664,2.4956359268892463,2.4956359268892463,1.0,1.0
15816,Carrera 14 # 94 A - 55,Instituciones - IPS,860013570,110010559731,2780,Óptica Cafam Calle 94,-74.04928410971574,4.680357009902143,10.0,2300,Calle 100,Calle 97,Autonorte,3,2,0,0,SENCILLA,NO,4.68434548,-74.05750794,1.0135745576075064,1.0135745576075064,1.0,1.0
16069,CRA 16 # 86 A 32,Instituciones - IPS,860073087,110010522701,392,LA FONT LTDA CIENCIA ACADEMIA MEDICA RESORT,-74.05476430995428,4.672225819763555,8.0,2303,Calle 85,Calle 85,Autonorte,4,1,0,0,SENCILLA,NO,4.67241739,-74.05941206,0.5155290818712872,0.5155290818712872,1.0,1.0
16181,CRA 8 # 17 45 SUR,Instituciones - IPS,860015888,110010566801,412,HOSPITAL UNIVERSITARIO CLINICA SAN RAFAEL,-74.09133121994455,4.576650720256573,149.0,10002,AV. 1 Mayo,AV. 1? Mayo con Cra 7,Cr 7-10,3,2,0,0,SENCILLA,NO,4.57572274,-74.09456268,0.3727437356482977,0.3727437356482977,1.0,1.0
16330,CARRERA 8#17-44 SUR,Instituciones - IPS,860015888,110010566809,2974,HOSPITAL UNIVERSITARIO CLINICA SAN RAFAEL,-74.0902814702631,4.575976670104537,149.0,10002,AV. 1 Mayo,AV. 1? Mayo con Cra 7,Cr 7-10,3,2,0,0,SENCILLA,NO,4.57572274,-74.09456268,0.47537074608639945,0.47537074608639945,1.0,1.0
16404,CRA 16 # 82 74 CONS 619 313 314 y 315,Instituciones - IPS,830005028,110010959903,422,SEDE SAN SEBASTIAN,-74.05655118032695,4.668640220074973,113.0,2304,Héroes,Calle 80,Autonorte,6,1,0,0,SENCILLA,NO,4.66689435,-74.06050012,0.47877024759899317,0.47877024759899317,1.0,1.0
16553,"Carrera 16 A No 82 . 47 Piso 1 Consultorio 2 y Piso 2 Consultorio 1, Consultorio 3 y Consultorio 5",Instituciones - IPS,830005028,110010959908,1818,CENTRO MATERNO FETAL Y NEONATAL CLINICA DEL COUNTRY,-74.05756311991811,4.6686070103176025,113.0,2304,Héroes,Calle 80,Autonorte,6,1,0,0,SENCILLA,NO,4.66689435,-74.06050012,0.37711396774614203,0.37711396774614203,1.0,1.0
16702,CRA 16 # 82 57,Instituciones - IPS,830005028,110010959901,421,CLINICA DEL COUNTRY IPS,-74.05689998986358,4.668954789601641,113.0,2304,Héroes,Calle 80,Autonorte,6,1,0,0,SENCILLA,NO,4.66689435,-74.06050012,0.46009056849765606,0.46009056849765606,1.0,1.0
16963,CALLE 83 No. 16 A-43 PISO 1,Instituciones - IPS,830005028,110010959904,1282,CENTRO DE INVESTIGACIÒN CLINICA DEL COUNTRY,-74.0571041499782,4.669140989575518,113.0,2303,Calle 85,Calle 85,Autonorte,4,1,0,0,SENCILLA,NO,4.67241739,-74.05941206,0.445139962459521,0.445139962459521,1.0,1.0
17112,"CALLE 83 No 16A-10 piso 2,3,4,5",Instituciones - IPS,830005028,110010959905,1348,CENTRO DE ONCOLOGIA CLINICA DEL COUNTRY,-74.05716561001499,4.669350110046718,113.0,2303,Calle 85,Calle 85,Autonorte,4,1,0,0,SENCILLA,NO,4.67241739,-74.05941206,0.42226673250360813,0.42226673250360813,1.0,1.0
17149,CARRERA 16 No 82 - 32,Instituciones - IPS,830005028,110010959909,2115,CENTRO DIAGNOSTICO - CLINICA DEL COUNTRY,-74.05674433967262,4.668119930114554,113.0,2304,Héroes,Calle 80,Autonorte,6,1,0,0,SENCILLA,NO,4.66689435,-74.06050012,0.4379799877913729,0.4379799877913729,1.0,1.0
17410,CARRERA 16 No 84A - 09 Cons 321 y 322,Instituciones - IPS,830005028,110010959907,1627,DEPARTAMENTO DE IMAGENES DIAGNOSTICAS CLINICA DEL COUNTRY 2,-74.05643813992486,4.669929490186875,113.0,2303,Calle 85,Calle 85,Autonorte,4,1,0,0,SENCILLA,NO,4.67241739,-74.05941206,0.43029981896478425,0.43029981896478425,1.0,1.0
17473,DIAG 115 A # 70 C 75,Instituciones - IPS,860006656,110010644701,433,FUNDACION ABOOD SHAIO,-74.0728701302885,4.698065880430355,184.0,3009,Suba - Calle 116,Av Suba Cll 114,Suba,2,1,0,0,SENCILLA,NO,4.69918067,-74.06975627,0.3666705727129804,0.3666705727129804,1.0,1.0
17622,DIAGONAL 115A No. 70 C 30,Instituciones - IPS,860006656,110010644702,981,FUNDACIÓN ABOOD SHAIO,-74.07259231999868,4.698787080354261,184.0,3009,Suba - Calle 116,Av Suba Cll 114,Suba,2,1,0,0,SENCILLA,NO,4.69918067,-74.06975627,0.31732691276563024,0.31732691276563024,1.0,1.0
17865,CL 45 F # 16 A 11,Instituciones - IPS,860010783,110010752101,491,CLINICA NUEVA,-74.07096126959856,4.634260959855697,80.0,9117,Calle 45,Calle 45 - Calle 42A,Caracas,3,2,0,0,SENCILLA,NO,4.633374099999999,-74.06738051,0.40892948285051367,0.40892948285051367,1.0,1.0
18014,TRANSVERSAL 16A No. 45D-32,Instituciones - IPS,860010783,110010752105,1762,SEDE B,-74.07071997043515,4.634054509727534,80.0,9117,Calle 45,Calle 45 - Calle 42A,Caracas,3,2,0,0,SENCILLA,NO,4.633374099999999,-74.06738051,0.3777711154896641,0.3777711154896641,1.0,1.0
18172,CALLE 74 # 76 65,Instituciones - IPS,800085486,110010802401,512,CLINICA PARTENON,-74.09743571966116,4.692286979731964,155.0,4100,Granja - Carrera 77,Carrera 77 Bis,Calle 80,3,2,0,0,INTERMEDIA,NO,4.6984667,-74.09483848,0.7450009924695464,0.7450009924695464,1.0,1.0
18321,CRA 76 # 73 35,Instituciones - IPS,800085486,110010802402,513,CLINICA PARTENON CONSULTA EXTERNA,-74.09795765970586,4.6918972598423245,155.0,4100,Granja - Carrera 77,Carrera 77 Bis,Calle 80,3,2,0,0,INTERMEDIA,NO,4.6984667,-74.09483848,0.8081480042490274,0.8081480042490274,1.0,1.0
18459,CALLE 77 No. 73A-10,Instituciones - IPS,800085486,110010802406,1458,LABORATORIO CLINICO PARTENON SEDE PRINCIPAL,-74.09260778974367,4.693921790401134,155.0,4101,Minuto de Dios,Carrera 73 A,Calle 80,1,1,0,0,SENCILLA,NO,4.69669576,-74.091492,0.33231384689702237,0.33231384689702237,1.0,1.0
18594,KR 19 C # 91 17,Instituciones - IPS,800117564,110010793901,519,CLINICA DE LA MUJER,-74.05725003009213,4.677681020205781,12.0,2302,Virrey,Calle 90,Autonorte,3,1,0,0,SENCILLA,NO,4.67739343,-74.05858701,0.15158182591578745,0.15158182591578745,1.0,1.0
18743,CRA. 19C No. 91-08,Instituciones - IPS,800117564,110010793902,1441,CENTRO ADMINISTRATIVO Y ASISTENCIAL CM,-74.05688650974442,4.677360079891244,12.0,2302,Virrey,Calle 90,Autonorte,3,1,0,0,SENCILLA,NO,4.67739343,-74.05858701,0.18849375973015153,0.18849375973015153,1.0,1.0
18892,KR 19 C 90-30 PI 4,Instituciones - IPS,800117564,110010793903,1965,UNIDAD MATERNO FETAL CLINICA DE LA MUJER S.A.S.,-74.05700350992028,4.67714128962589,12.0,2302,Virrey,Calle 90,Autonorte,3,1,0,0,SENCILLA,NO,4.67739343,-74.05858701,0.17771629445680204,0.17771629445680204,1.0,1.0
19041,Cra 19C #90-14 CONSULTORIOS 201 AL 209,Instituciones - IPS,800117564,110010793904,2724,Centro de Fertilidad Clínica de la Mujer,-74.05729847982867,4.676778880327035,12.0,2302,Virrey,Calle 90,Autonorte,3,1,0,0,SENCILLA,NO,4.67739343,-74.05858701,0.1583090219612558,0.1583090219612558,1.0,1.0
19190,CARRERA 19C # 90-14 CONSULTORIO 604,Instituciones - IPS,800117564,110010793905,172,CONSULTORIO ESPECIALISTAS CM (ANESTESIOLOGOS CLINICA DE LA MUJER),-74.05723194161558,4.676863747222235,12.0,2302,Virrey,Calle 90,Autonorte,3,1,0,0,SENCILLA,NO,4.67739343,-74.05858701,0.16131181913352813,0.16131181913352813,1.0,1.0
19287,CALLE 18 No 106-48,Instituciones - IPS,860028947,110010773701,547,CENTRO ASISTENCIAL MADRE BERNARDA,-74.14794298986095,4.6783924597765765,51.0,6000,Portal El Dorado,carrera 87,Calle 26,0,0,1,532,CABECERA,SI,4.68113815,-74.12098887,3.002731199339519,3.002731199339519,1.0,1.0
19514,CALLE 53 SUR # 79 D 71,Instituciones - IPS,860007336,110010817103,567,CLINICA COLSUBSIDIO CIUDAD ROMA,-74.17268153996008,4.615096770157676,48.0,5000,Portal de las Américas,av.Cali - Calle 43 sur,Americas,0,0,1,785,CABECERA,SI,4.6282829,-74.17128277,1.4744039493865484,1.4744039493865484,1.0,1.0
19623,AK7 # 123 65 PI 3 Y 4,Instituciones - IPS,860007336,110010817104,568,CENTRO MEDICO COLSUBSIDIO USAQUEN,-74.02953683020219,4.6991496304380895,48.0,2202,Calle 127,Calle 127,Autonorte,2,1,0,0,SENCILLA,NO,4.70524465,-74.05401073,2.795609042810267,2.795609042810267,1.0,1.0
19672,CRA 111 A # 82 36,Instituciones - IPS,860007336,110010817106,570,CENTRO MEDICO CIUDADELA COLSUBSIDIO,-74.11494252988919,4.720804729843275,48.0,4000,Portal de la 80,Carrera 96,Calle 80,0,0,1,353,CABECERA,SI,4.70952296,-74.11052456,1.346629317754564,1.346629317754564,1.0,1.0
19964,AK 1 # 76 A 04 SUR,Instituciones - IPS,860007336,110010817108,571,CENTRO MEDICO COLSUBSIDIO SANTA LIBRADA,-74.11535804023396,4.51244242968538,48.0,9000,Portal de Usme,Calle 65C Sur,Caracas,0,0,0,0,CABECERA,NO,4.53079248,-74.12017173,2.1090484053568717,2.1090484053568717,1.0,1.0
20057,AC 13 # 62 96,Instituciones - IPS,860007336,110010817109,572,CENTRO MEDICO COLSUBSIDIO PUENTE ARANDA,-74.11407407011355,4.634544910274792,48.0,5107,Américas - Carrera 53A,Amï¿½ricas - KR 53A,Americas,4,1,0,0,SENCILLA,NO,4.62776126,-74.11111797,0.8223875717394941,0.8223875717394941,1.0,1.0
20237,"CALLE 75 # 13-37 Pisos 1, 2 y3",Instituciones - IPS,860007336,110010817112,730,CAJA COLOMBIANA DE SUBSIDIO FAMILIAR COLSUBSIDIO CLINICA COLSUBSIDIO EL LAGO,-74.05876090028029,4.661279939814212,48.0,9123,Calle 76,Calle 76 - Calle 74,Caracas,3,2,0,0,SENCILLA,NO,4.66406733,-74.06107216,0.40209177823425646,0.40209177823425646,1.0,1.0
20376,CL 12 # 7 65 SOTANO,Instituciones - IPS,860007336,110010817120,956,CONSULTORIO DE EMPRESA ALTAS CORTES,-74.07551389013598,4.598993020169087,48.0,10006,San Victorino,Kra 10- Cl12,Cr 7-10,3,2,0,0,SENCILLA,NO,4.60177387,-74.07685397,0.34303927659464406,0.34303927659464406,1.0,1.0
20493,CL 13 # 68 A 76,Instituciones - IPS,860007336,110010817123,959,CONSULTORIO MEDICO CASA LUKER,-74.12010693008456,4.638882410228659,48.0,5105,Pradera,Av. Americas -Carrera 64,Americas,4,1,1,32,SENCILLA,SI,4.62859531,-74.11905023,1.1498531757114046,1.1498531757114046,1.0,1.0
20628,AK 96 # 24 C 94 IN 2,Instituciones - IPS,860007336,110010817124,960,CONSULTORIO DE EMPRESA COCACOLA,-74.12673634955766,4.679094899749136,48.0,6000,Portal El Dorado,carrera 87,Calle 26,0,0,1,532,CABECERA,SI,4.68113815,-74.12098887,0.6762670016462847,0.6762670016462847,1.0,1.0
20744,AC 24 # 53 28 TO B SOTANO 2,Instituciones - IPS,860007336,110010817128,962,CONSULTORIO DE EMPRESA TRIBUNALES DE CUNDINAMARCA,-74.09889558979569,4.64064685972074,48.0,6104,Gobernación,Carrera 54,Calle 26,4,1,0,0,SENCILLA,NO,4.64263932,-74.09621841,0.37030171055640143,0.37030171055640143,1.0,1.0
20926,TV 93 # 65 A 82 PI 2,Instituciones - IPS,860007336,110010817129,963,CONSULTORIO DE MEPRESA PROTELA,-74.11643993972112,4.693413009557896,48.0,6000,Portal El Dorado,carrera 87,Calle 26,0,0,1,532,CABECERA,SI,4.68113815,-74.12098887,1.455026144276379,1.455026144276379,1.0,1.0
21153,TV 78 H # 42 C 10 SUR PI 2,Instituciones - IPS,860007336,110010817132,986,CENTRO MEDICO COLSUBSIDIO PRIMERO DE MAYO,-74.16131018000345,4.6151265602044695,48.0,5000,Portal de las Américas,av.Cali - Calle 43 sur,Americas,0,0,1,785,CABECERA,SI,4.6282829,-74.17128277,1.833523502936153,1.833523502936153,1.0,1.0
21302,KR 85 C# 53 21 SUR,Instituciones - IPS,860007336,110010817133,1048,CENTRO MEDICO COLSUBSIDIO CHICALA,-74.17920162997153,4.62353886030335,48.0,5000,Portal de las Américas,av.Cali - Calle 43 sur,Americas,0,0,1,785,CABECERA,SI,4.6282829,-74.17128277,1.0239982840520285,1.0239982840520285,1.0,1.0
21332,CL 38 SUR # 18 30,Instituciones - IPS,860007336,110010817136,1283,CENTRO MEDICO COLSUBSIDIO QUIROGA,-74.11846726034928,4.5765534402456876,48.0,9100,Calle 40 S,Calle 38 Sur - Calle 40 Su,Caracas,3,2,0,0,INTERMEDIA,NO,4.57596786,-74.11952549,0.13415590639571368,0.13415590639571368,1.0,1.0
21479,CL 26 SUR # 93 D 12,Instituciones - IPS,860007336,110010817144,1966,CENTRO MEDICO COLSUBSIDIO IPANEMA,-74.1679836304002,4.648740529836146,48.0,5002,Biblioteca Tintal,av.Cali - Calle 26 sur,Americas,4,2,0,0,SENCILLA,NO,4.63996012,-74.15698977,1.5613610793543473,1.5613610793543473,1.0,1.0
21646,AK 72 # 63 F 49,Instituciones - IPS,860007336,110010817145,1967,PUNTO DE ATENCION EN SALUD AV BOYACA,-74.10313087956067,4.676570480122453,48.0,6002,Normandía,carrera 73a,Calle 26,4,1,0,0,SENCILLA,NO,4.667322599999999,-74.11231782,1.4470866768374473,1.4470866768374473,1.0,1.0
21815,KR 71 D # 6 94 SUR Local 3505,Instituciones - IPS,860007336,110010817156,137,CONSULTORIO MÉDICO COLSUBSIDIO PLAZA DE LAS AMERICAS,-74.13528837035128,4.618916270168504,48.0,5102,AV. Américas - AV. Boyacá,Av. Americas -Carrera 71,Americas,4,1,1,32,SENCILLA,SI,4.6302734,-74.13458973,1.2652268853095727,1.2652268853095727,1.0,1.0
21999,CL 26 # 24 52 PI 1 Y 3,Instituciones - IPS,860007336,110010817105,569,CENTRO MEDICO COLSUBSIDIO CALLE 26,-74.07738489042995,4.622320839572849,48.0,6109,Centro Memoria,Carrera 20,Calle 26,2,2,0,0,SENCILLA,NO,4.62042703,-74.07649587,0.2324942411660259,0.2324942411660259,1.0,1.0
22104,CALLE 163 A # 15 77/89,Instituciones - IPS,860007336,110010817114,797,CLINICA MATERNO INFANTIL COLSUBSIDIO,-74.03791608969532,4.742021859930547,48.0,2102,Calle 161,Calle 160,Autonorte,4,1,0,0,SENCILLA,NO,4.74154193,-74.04796835,1.115212243248251,1.115212243248251,1.0,1.0
22205,KR 101 # 69 - 67,Instituciones - IPS,860007336,110010817116,880,CENTRO MEDICO COLSUBSIDIO TIERRA GRATA,-74.12025855043316,4.701167580131699,48.0,4000,Portal de la 80,Carrera 96,Calle 80,0,0,1,353,CABECERA,SI,4.70952296,-74.11052456,1.423665735444594,1.423665735444594,1.0,1.0
22416,CL 17 # 114 12 LC 5-6-18,Instituciones - IPS,860007336,110010817117,881,CENTRO MEDICO COLSUBSIDIO FONTIBON,-74.15404358010944,4.682188299955007,48.0,6000,Portal El Dorado,carrera 87,Calle 26,0,0,1,532,CABECERA,SI,4.68113815,-74.12098887,3.665113576560575,3.665113576560575,1.0,1.0
22636,AK 45 # 176 31 PI 2,Instituciones - IPS,860007336,110010817118,928,CENTRO MEDICO COLSUBSIDIO PORTAL DEL NORTE,-74.04633756012534,4.757124979818798,48.0,2000,Portal del Norte,Calle 173,Autonorte,0,0,0,0,CABECERA,NO,4.75447203,-74.04596522,0.29786601174447236,0.29786601174447236,1.0,1.0
22679,AUTOP SUR # 71 75,Instituciones - IPS,860007336,110010817127,961,CONSULTORIO MEDICO MEXICHEM COLOMBIA SAS,-74.16433437008554,4.595529030390633,48.0,7001,Perdomo,AutoSur-Kr78C,NQS,2,1,0,0,SENCILLA,NO,4.59568824,-74.16341884,0.10300769012715891,0.10300769012715891,1.0,1.0
22831,CL 19 SUR # 21-32 PI 3 y 4,Instituciones - IPS,860007336,110010817134,1119,CENTRO MEDICO COLSUBSIDIO RESTREPO,-74.10355215978451,4.5858549399415685,48.0,9104,Restrepo,Calle 19 Sur - Av. 1 de M,Caracas,2,2,0,0,SENCILLA,NO,4.58176282,-74.10152688,0.5073829114740304,0.5073829114740304,1.0,1.0
23079,KR 92 # 151 - 01 LC 201,Instituciones - IPS,860007336,110010817143,1828,CENTRO MEDICO COLSUBSIDIO SUBA,-74.0845232701902,4.747080859957889,48.0,3001,La Campiña,Av Suba Kr 98A,Suba,2,1,0,0,SENCILLA,NO,4.74271815,-74.09119976,0.8847074344710665,0.8847074344710665,1.0,1.0
23228,"CL 147 # 101 - 56 Locales 324, 325, 329 y 330.",Instituciones - IPS,860007336,110010817146,1968,PUNTO DE ATENCION EN SALUD SUBA,-74.09287068979641,4.744519389842132,48.0,3001,La Campiña,Av Suba Kr 98A,Suba,2,1,0,0,SENCILLA,NO,4.74271815,-74.09119976,0.27276496950986584,0.27276496950986584,1.0,1.0
23342,KR 43 # 13 66/70,Instituciones - IPS,860007336,110010817149,2270,CENTRO INTEGRAL DE DIAGNOSTICO COLSUBSIDIO,-74.1012636602757,4.623900399813387,48.0,12001,Carrera 43,Av. Americas -Carrera 43,Americas,2,2,0,0,SENCILLA,NO,4.62280517,-74.10141668,0.12295922962177286,0.12295922962177286,1.0,1.0
23537,Cl 54 F Sur # 93 C 18 LC 251,Instituciones - IPS,860007336,110010817150,2276,CENTRO MEDICO COLSUBSIDIO PORVENIR,-74.18861664968222,4.634831330031601,48.0,5000,Portal de las Américas,av.Cali - Calle 43 sur,Americas,0,0,1,785,CABECERA,SI,4.6282829,-74.17128277,2.0545086464154343,2.0545086464154343,1.0,1.0
23632,Cra. 7 No 6 C 54 Piso 3,Instituciones - IPS,860007336,110010817152,2598,CONSULTORIO DE EMPRESA DIAN NIVEL CENTRAL,-74.07731458019099,4.593911759664639,48.0,10005,Bicentenario,Kra 10 -Cl5,Cr 7-10,0,2,1,116,INTERMEDIA,SI,4.59504984,-74.08110114,0.4383571745832279,0.4383571745832279,1.0,1.0
23695,CARRERA 111 A NO 86 74 LOCAL 101,Instituciones - IPS,860007336,110010817153,2758,CONSULTORIO MÉDICO COLSUBSIDIO UNICENTRO OCCIDENTE,-74.11265413009339,4.722307100406986,48.0,4000,Portal de la 80,Carrera 96,Calle 80,0,0,1,353,CABECERA,SI,4.70952296,-74.11052456,1.4409878373109735,1.4409878373109735,1.0,1.0
23867,CALLE 67 # 10 - 27,Instituciones - IPS,860007336,110010817102,566,CLINICA INFANTIL COLSUBSIDIO,-74.06108623969888,4.65211829006517,48.0,9121,Flores,Calle 69  - Calle 67,Caracas,2,2,0,0,SENCILLA,NO,4.65471326,-74.06308827,0.3639933898543642,0.3639933898543642,1.0,1.0
24012,KR 106 # 15 A 25,Instituciones - IPS,860007336,110010817115,846,CENTRO MEDICO COLSUBSIDIO ZONA FRANCA,-74.16076575961877,4.673726720112865,48.0,5002,Biblioteca Tintal,av.Cali - Calle 26 sur,Americas,4,2,0,0,SENCILLA,NO,4.63996012,-74.15698977,3.7779241735461353,3.7779241735461353,1.0,1.0
24247,KR 13 # 27 47,Instituciones - IPS,860007336,110010817121,957,CONSULTORIO DE EMPRESA AV VILLAS Y BANCO DE OCCIDENTE,-74.07101383002582,4.614649049869194,48.0,10009,Museo Nacional,Kra 7- Cl32,Cr 7-10,0,1,0,0,SENCILLA,NO,4.61410007,-74.06962209999999,0.16589133744477247,0.16589133744477247,1.0,1.0
24305,CL 36 # 7 47 PI 3,Instituciones - IPS,860007336,110010817122,958,CONSULTORIO DE EMPRESA BANCO DE BOGOTA,-74.06737001978999,4.623381439622632,48.0,9115,Calle 34,Avenida Calle 34 - Calle 3,Caracas,3,2,0,0,SENCILLA,NO,4.62221301,-74.06958764,0.2780122825911887,0.2780122825911887,1.0,1.0
24561,CALLE 152 # 53 A 05 PISO 3,Instituciones - IPS,860007336,110010817142,1719,SALUD PREFERENCIAL MAZUREN,-74.05460332017728,4.73502046016168,48.0,2103,Mazurén,Calle 152,Autonorte,5,1,0,0,SENCILLA,NO,4.73547088,-74.04897041,0.6262192323844149,0.6262192323844149,1.0,1.0
24603,KR 13 A 35 38 Piso 5 Edificio torre B-35,Instituciones - IPS,860007336,110010817147,2128,CONSULTORIO DE EMPRESA BANCO DE BOGOTA 2,-74.06825412013306,4.623526090222103,48.0,9115,Calle 34,Avenida Calle 34 - Calle 3,Caracas,3,2,0,0,SENCILLA,NO,4.62221301,-74.06958764,0.20775615315343965,0.20775615315343965,1.0,1.0
24769,AC 26 # 68 B 70,Instituciones - IPS,860007336,110010817148,2146,CONSULTORIO DE EMPRESA EL TIEMPO,-74.10466400012008,4.657760640309536,48.0,6101,El Tiempo - Maloka,carrera 68d,Calle 26,4,1,0,0,SENCILLA,NO,4.65590347,-74.10508264,0.21165584652213276,0.21165584652213276,1.0,1.0
24905,AC 100 # 23 - 59,Instituciones - IPS,860007336,110010817151,2468,CLINICA COLSUBSIDIO CALLE 100,-74.05670869991202,4.686158609669497,48.0,2300,Calle 100,Calle 97,Autonorte,3,2,0,0,SENCILLA,NO,4.68434548,-74.05750794,0.2202098100608726,0.2202098100608726,1.0,1.0
25148,CALLE 116 16 27 PISO 2,Instituciones - IPS,860007336,110010817154,2759,CONSULTORIO MÉDICO COLSUBSIDIO CALLE 116,-74.04556828962842,4.696674820155283,48.0,2204,Pepe Sierra,Calle 116,Autonorte,2,1,0,0,SENCILLA,NO,4.69785859,-74.05531281,1.0878944937046033,1.0878944937046033,1.0,1.0
25205,KR 91 # 145 A 47 LC 153/154,Instituciones - IPS,860007336,110010817155,2828,CONSULTORIO MÉDICO COLSUBSIDIO SUBAZAR,-74.08509047993532,4.738748300116267,48.0,3002,Suba - TV. 91,Av Suba Kr 90,Suba,2,1,0,0,SENCILLA,NO,4.73820209,-74.08603261,0.12078336020816473,0.12078336020816473,1.0,1.0
25342,KR 80 # 170 85,Instituciones - IPS,800118223,110010868401,578,ATARDECER DE LOS AÑOS LTDA,-74.07019782018467,4.764073170272862,20.0,2001,Calle 187,Calle 184,Autonorte,4,1,0,0,SENCILLA,NO,4.76178408,-74.04472315,2.8343246840737972,2.8343246840737972,1.0,1.0
25576,Calle 6 A # 70 - 06,Instituciones - IPS,800201496,110010843701,582,CLINICA DE ORTOPEDIA Y ACCIDENTES LABORALES,-74.13091696965107,4.630525799943978,8.0,5103,Marsella,Av. Americas -Carrera 69C,Americas,6,1,1,32,SENCILLA,SI,4.62962336,-74.12858953,0.27678550009995795,0.27678550009995795,1.0,1.0
25683,KR 111 # 159 A 61,Instituciones - IPS,830113849,110010910401,604,CLINICA JUAN N CORPAS LTDA,-74.09317782019878,4.761183500429389,48.0,3000,Portal de Suba,Av Suba Av C. Cali,Suba,0,0,1,324,CABECERA,SI,4.74653621,-74.09625691,1.6640601960653254,1.6640601960653254,1.0,1.0
25801,KR 92 # 145-61,Instituciones - IPS,830113849,110010910403,1407,CENTRO MEDICO CORPAS SUBA,-74.08570300968653,4.738922719707077,48.0,3002,Suba - TV. 91,Av Suba Kr 90,Suba,2,1,0,0,SENCILLA,NO,4.73820209,-74.08603261,0.08806204176576962,0.08806204176576962,1.0,1.0
25960,CRA 21 NO. 22-68 SUR,Instituciones - IPS,800149453,110010917802,638,CENTRO POLICLINICO DEL OLAYA,-74.10503359038418,4.584190979567926,113.0,9104,Restrepo,Calle 19 Sur - Av. 1 de M,Caracas,2,2,0,0,SENCILLA,NO,4.58176282,-74.10152688,0.4732577680099441,0.4732577680099441,1.0,1.0
26122,TV 14 48 36 SUR,Instituciones - IPS,800149453,110010917804,639,DONTOLUCIA,-74.12591736000469,4.568677029582435,113.0,9004,Santa Lucía,Calle 46A Sur - Diagonal 4,Caracas,2,2,0,0,SENCILLA,NO,4.57071884,-74.12473269,0.26227685555600766,0.26227685555600766,1.0,1.0
26304,Avenida Américas N° 66 a - 27 segundo piso,Instituciones - IPS,800149453,110010917803,5,ODONTOAMERICAS,-74.12237243002713,4.626095518688988,113.0,5105,Pradera,Av. Americas -Carrera 64,Americas,4,1,1,32,SENCILLA,SI,4.62859531,-74.11905023,0.46134688417830116,0.46134688417830116,1.0,1.0
26407,CRA 20 # 23-04 SUR,Instituciones - IPS,800149453,110010917816,1978,TORRE 6 - CPO,-74.10539564018977,4.58297406003962,113.0,9104,Restrepo,Calle 19 Sur - Av. 1 de M,Caracas,2,2,0,0,SENCILLA,NO,4.58176282,-74.10152688,0.44946517644992123,0.44946517644992123,1.0,1.0
26544,CRA 45 No 93-79,Instituciones - IPS,800149453,110010917807,640,CASTELLANA CPO,-74.05869255016525,4.681476120233066,113.0,2300,Calle 100,Calle 97,Autonorte,3,2,0,0,SENCILLA,NO,4.68434548,-74.05750794,0.3450121325425933,0.3450121325425933,1.0,1.0
26777,KR 49 # 98 A 18,Instituciones - IPS,800149453,110010917809,1271,CALLE 98,-74.06077298997279,4.686697000173688,113.0,3012,Suba - Calle 95,Av Suba Cl 97,Suba,2,1,0,0,SENCILLA,NO,4.68428551,-74.06303712,0.3672356828823744,0.3672356828823744,1.0,1.0
26825,Avenida Caracas No. 49-83 Primer Piso Consultorio 113,Instituciones - IPS,800149453,110010917814,1655,CHAPINERO CPO,-74.06693973036217,4.637257690302247,113.0,9118,Marly,Calle 51 - Calle 49,Caracas,3,2,0,0,SENCILLA,NO,4.63951515,-74.06637045,0.25882599038468806,0.25882599038468806,1.0,1.0
27103,CRA 13 # 48 63,Instituciones - IPS,860002541,110010936106,667,UNIMARLY,-74.06618467031473,4.635974730060717,87.0,9117,Calle 45,Calle 45 - Calle 42A,Caracas,3,2,0,0,SENCILLA,NO,4.633374099999999,-74.06738051,0.318102480805131,0.318102480805131,1.0,1.0
27222,AK 19 N° 120 - 71 Of 101,Instituciones - IPS,860002541,110010936107,2004,SERVICIO DE OTORRINOLARINGOLOGIA - 122,-74.04981230023819,4.701329399863741,87.0,2202,Calle 127,Calle 127,Autonorte,2,1,0,0,SENCILLA,NO,4.70524465,-74.05401073,0.6371914242717488,0.6371914242717488,1.0,1.0
27272,CL 50 # 9 67,Instituciones - IPS,860002541,110010936101,664,CLINICA DE MARLY,-74.06506208972162,4.636624950232704,87.0,9118,Marly,Calle 51 - Calle 49,Caracas,3,2,0,0,SENCILLA,NO,4.63951515,-74.06637045,0.35257504920174837,0.35257504920174837,1.0,1.0
27421,CL 50 # 9 16,Instituciones - IPS,860002541,110010936103,665,SERVICIO DE RESONANCIA MAGNETICA,-74.06451880031588,4.637409059640654,87.0,9118,Marly,Calle 51 - Calle 49,Caracas,3,2,0,0,SENCILLA,NO,4.63951515,-74.06637045,0.31138155969005665,0.31138155969005665,1.0,1.0
27570,"CALLE 50 # 7 36, PISO 7, PISO 5, PISO 2 CONSULTORIOS 2, 3, 5",Instituciones - IPS,860002541,110010936105,666,CLINICA DE MARLY S.A,-74.06397051987042,4.636920239627493,87.0,9118,Marly,Calle 51 - Calle 49,Caracas,3,2,0,0,SENCILLA,NO,4.63951515,-74.06637045,0.39243401334019634,0.39243401334019634,1.0,1.0
27719,CARRERA 13 No. 50A-04,Instituciones - IPS,860002541,110010936108,2200,CLINICA DE MARLY - REHABILITACION,-74.065109650126,4.6374515997759325,87.0,9118,Marly,Calle 51 - Calle 49,Caracas,3,2,0,0,SENCILLA,NO,4.63951515,-74.06637045,0.2686562450010499,0.2686562450010499,1.0,1.0
27924,AV DE LAS AMERICAS # 71 C 29,Instituciones - IPS,860090566,110010966601,675,CLINICA DEL OCCIDENTE S.A.,-74.13567718995233,4.62937468005086,115.0,5102,AV. Américas - AV. Boyacá,Av. Americas -Carrera 71,Americas,4,1,1,32,SENCILLA,SI,4.6302734,-74.13458973,0.15656631982698002,0.15656631982698002,1.0,1.0
28077,CRA 8 # 0 29 SUR,Instituciones - IPS,899999032,110010922401,676,EMPRESA SOCIAL DEL ESTADO HOSPITAL UNIVERSITARIO DE LA SAMARITANA,-74.08371026970525,4.587218050013217,149.0,10010,San Bernardo,Kra 10- Cl1b  sur,Cr 7-10,2,2,0,0,SENCILLA,NO,4.58944781,-74.08474329,0.27309916726023326,0.27309916726023326,1.0,1.0
28166,CRA 13 # 51 - 87,Instituciones - IPS,860066191,110011005803,700,CENTRO MEDICO FEDERMAN CHAPINERO,-74.0655482301056,4.6390645200392,112.0,9118,Marly,Calle 51 - Calle 49,Caracas,3,2,0,0,SENCILLA,NO,4.63951515,-74.06637045,0.10399491754811489,0.10399491754811489,1.0,1.0
28418,CRA 73 # 6 - 08 SUR,Instituciones - IPS,860066191,110011005805,701,CENTRO MEDICO FEDERMAN KENNEDY,-74.14262040981879,4.621252370100685,112.0,5101,Mandalay,av. Amï¿½ricas Carrera 73,Americas,4,1,0,0,SENCILLA,NO,4.63071043,-74.14002190000001,1.0904091656911539,1.0904091656911539,1.0,1.0
28602,TV 76 # 83 79,Instituciones - IPS,860066191,110011005807,842,CENTRO MEDICO MINUTO DE DIOS,-74.09258275010345,4.7045697697499005,112.0,4100,Granja - Carrera 77,Carrera 77 Bis,Calle 80,3,2,0,0,INTERMEDIA,NO,4.6984667,-74.09483848,0.723208188341661,0.723208188341661,1.0,1.0
28705,CL 6 C# 69 A 57 CS 101-102-201-202-203-204-205-206-301-302-303-304,Instituciones - IPS,860066191,110011005810,1051,CENTRO MEDICO MEDICOS ASOCIADOS PAEZ,-74.12886290977018,4.63093841030576,112.0,5103,Marsella,Av. Americas -Carrera 69C,Americas,6,1,1,32,SENCILLA,SI,4.62962336,-74.12858953,0.14933303842447238,0.14933303842447238,1.0,1.0
28831,KR 36 # 25 D 14,Instituciones - IPS,860066191,110011005813,1139,INSTITUTO MEDICO DE ESPECIALISTAS FUNDADORES,-74.08477795964124,4.631326510235546,112.0,6107,Ciudad Universitaria,carrera 34,Calle 26,2,2,0,0,SENCILLA,NO,4.63020415,-74.08297304,0.2357802744428051,0.2357802744428051,1.0,1.0
28980,"DIAGONAL 45 D 20-22 CONSULTORIOS 1,2,3",Instituciones - IPS,860066191,110011005815,2179,MEDICOS ASOCIADOS SALUD OCUPACIONAL,-74.0853941599087,4.630269529588285,112.0,6107,Ciudad Universitaria,carrera 34,Calle 26,2,2,0,0,SENCILLA,NO,4.63020415,-74.08297304,0.2684361015483625,0.2684361015483625,1.0,1.0
29132,CALLE 58 A # 37 10,Instituciones - IPS,860066191,110011005802,699,CLINICA FEDERMAN,-74.08143181964954,4.649830459785392,112.0,7105,Movistar Arena,Kr 30 Cl 57,NQS,2,1,0,0,SENCILLA,NO,4.65033029,-74.07828379,0.35329181613372707,0.35329181613372707,1.0,1.0
29278,KR 36 # 25 C 15,Instituciones - IPS,860066191,110011005806,702,CLINICA FUNDADORES,-74.08546018967535,4.6312619898882925,112.0,6107,Ciudad Universitaria,carrera 34,Calle 26,2,2,0,0,SENCILLA,NO,4.63020415,-74.08297304,0.2997032199135775,0.2997032199135775,1.0,1.0
29363,CL 136 # 17 A 73,Instituciones - IPS,860066191,110011005811,1052,CENTRO MEDICO MEDICOS ASOCIADOS NUEVO NORTE,-74.04521517985654,4.720030790084994,112.0,2200,Alcalá,Calle 137,Autonorte,3,2,0,0,SENCILLA,NO,4.72076577,-74.05144057,0.694707765291735,0.694707765291735,1.0,1.0
29636,TV 3 No49-00,Instituciones - IPS,830040256,110011693801,972,HOSPITAL MILITAR CENTRAL,-74.06065923990161,4.635200909632,294.0,9117,Calle 45,Calle 45 - Calle 42A,Caracas,3,2,0,0,SENCILLA,NO,4.633374099999999,-74.06738051,0.7721269079304017,0.7721269079304017,1.0,1.0
29768,CL 24 # 29 45,Instituciones - IPS,900210981,110011864201,1197,HOSPITAL UNIVERSITARIO MAYOR-MEDERI,-74.08253638003805,4.622837539673342,452.0,7109,CAD,Kr 30 Cl 26,NQS,2,2,0,0,SENCILLA,NO,4.6238871,-74.08372009,0.17559092366763177,0.17559092366763177,1.0,1.0
29832,CL 66 A # 52 25,Instituciones - IPS,900210981,110011864202,1198,HOSPITAL UNIVERSITARIO BARRIOS UNIDOS-MEDERI,-74.08011196003687,4.66368483004687,452.0,7103,AV. Chile,Kr 30 Cl 72,NQS,6,2,0,0,SENCILLA,NO,4.66689641,-74.07398957,0.7667608886621938,0.7667608886621938,1.0,1.0
30080,KR 78 # 3 A 40,Instituciones - IPS,800227072,110010822203,1251,EUSALUD CLINICA DE TRAUMATOLOGIA Y ORTOPEDIA,-74.14490833979569,4.627646470065485,16.0,5100,Banderas,Av. Americas -Carrera 78,Americas,0,2,1,101,INTERMEDIA,SI,4.63139347,-74.14723714,0.49011601535746463,0.49011601535746463,1.0,1.0
30120,CL 97 N° 23-37 LOCAL 205,Instituciones - IPS,800227072,110010822206,171,EUSALUD LABORATORIO CLÍNICO,-74.05690277284431,4.684613067849215,16.0,2300,Calle 100,Calle 97,Autonorte,3,2,0,0,SENCILLA,NO,4.68434548,-74.05750794,0.07337078236064135,0.07337078236064135,1.0,1.0
30275,DG 54 # 16 A 16,Instituciones - IPS,800227072,110010822201,558,CLINICA MATERNO INFANTIL EUSALUD,-74.06868436015357,4.642465830032938,16.0,9119,Calle 57,Calle 57 - Calle 54,Caracas,3,2,0,0,SENCILLA,NO,4.64379318,-74.06558740000001,0.3736244078592373,0.3736244078592373,1.0,1.0
30411,KR 1 # 20 19,Instituciones - IPS,860013874,110010825802,1448,CASA ESPINOSA,-74.06623545028111,4.603186989913031,5.0,14005,Las Aguas,carrera 4,Eje Ambiental,1,2,0,0,INTERCAMBIO,NO,4.60266984,-74.06817769,0.22281880270552354,0.22281880270552354,1.0,1.0
30564,"Av. Carrera 68 No.31-41 sur. Consultorio No.6, Primer Piso.",Instituciones - IPS,860013874,110010825804,2204,SEDE ALQUERIA,-74.13063872008509,4.60687358960855,5.0,7005,Alquería,AutoSur-Kr48,NQS,2,1,0,0,SENCILLA,NO,4.59437209,-74.13441089,1.4516164970155294,1.4516164970155294,1.0,1.0
30709,CRA 4 ESTE # 17 50 AV CIRCUNVALAR,Instituciones - IPS,860013874,110010825801,573,INSTITUTO DE ORTOPEDIA INFANTIL ROOSEVELT,-74.06431873023074,4.597794169584346,5.0,14005,Las Aguas,carrera 4,Eje Ambiental,1,2,0,0,INTERCAMBIO,NO,4.60266984,-74.06817769,0.6905548928128014,0.6905548928128014,1.0,1.0
30971,"Av. Carrera 45 No.145-64 Consultorio No.205, Segundo Piso.",Instituciones - IPS,860013874,110010825803,2203,SEDE NORTE,-74.0499315902197,4.727769820241979,5.0,2105,Calle 142,Calle 142,Autonorte,4,1,0,0,SENCILLA,NO,4.72662081,-74.05050551,0.14271865090434396,0.14271865090434396,1.0,1.0
31077,"Av. Carrera 68 No. 68b-31. Primer piso, consultorio 106",Instituciones - IPS,860013874,110010825805,2216,SEDE AVENIDA 68,-74.09500128973275,4.681180999965119,5.0,4103,Ferias,Transversal  67 Bis,Calle 80,1,1,0,0,SENCILLA,NO,4.69014066,-74.08402878,1.5720149570641002,1.5720149570641002,1.0,1.0
31173,CARRERA 54 # 65-85,Instituciones - IPS,860013874,110010825806,2318,SEDE PROPACE,-74.08099485034924,4.6641626599836705,5.0,7103,AV. Chile,Kr 30 Cl 72,NQS,6,2,0,0,SENCILLA,NO,4.66689641,-74.07398957,0.8337593123031102,0.8337593123031102,1.0,1.0
31366,CALLE 42 #13 A -11,Instituciones - IPS,900348937,110012198701,1639,ESENCIAL IPS,-74.06760119044858,4.629778999826971,26.0,9116,AV. 39,Avenida 39 - Avenida Calle,Caracas,3,2,0,0,SENCILLA,NO,4.62859306,-74.06823856,0.14959942227699327,0.14959942227699327,1.0,1.0
31493,Cra. 59 No. 26 21 CAN,Instituciones - IPS,830041314,110012311801,1791,HOSPITAL CENTRAL POLICIA NACIONAL,-74.09768798006766,4.647409079773638,232.0,6103,CAN,Carrera 60,Calle 26,4,1,0,0,SENCILLA,NO,4.64671936,-74.09893248,0.15781562875110466,0.15781562875110466,1.0,1.0
31621,CALLE 44 # 50-51 CAN,Instituciones - IPS,830041314,110012311802,1792,CONSULTA EXTERNA- HOSPITAL CENTRAL POLICIA NACIONAL,-74.0913354195685,4.6425282998596575,232.0,6104,Gobernación,Carrera 54,Calle 26,4,1,0,0,SENCILLA,NO,4.64263932,-74.09621841,0.5413230779541939,0.5413230779541939,1.0,1.0
31791,CL 44 # 58 05,Instituciones - IPS,830041314,110012311805,2782,CIRUGIA AMBULATORIA HOSPITAL CENTRAL DE LA POLICIA,-74.09489379013935,4.6476849800807924,232.0,6103,CAN,Carrera 60,Calle 26,4,1,0,0,SENCILLA,NO,4.64671936,-74.09893248,0.46030359465563053,0.46030359465563053,1.0,1.0
31921,Carrera 68B Bis No. 44 - 58 Torre B,Instituciones - IPS,830041314,110012311804,2570,Establecimiento de Sanidad Policial de Mediana Complejidad ESPAM BG. Edgar Yesid Duarte Valero Torre B,-74.10395936969607,4.656401329677573,232.0,6101,El Tiempo - Maloka,carrera 68d,Calle 26,4,1,0,0,SENCILLA,NO,4.65590347,-74.10508264,0.13624379157372407,0.13624379157372407,1.0,1.0
32157,CARRERA 14 # 76-25 CONSULTORIO 602,Instituciones - IPS,800210375,110010784305,1895,PROCARDIO NOGAL,-74.05856576014942,4.6628784397532215,134.0,9123,Calle 76,Calle 76 - Calle 74,Caracas,3,2,0,0,SENCILLA,NO,4.66406733,-74.06107216,0.307629857309575,0.307629857309575,1.0,1.0
32260,CALLE 40 A No 13-09 Piso 22 y Piso 17 Oficina 1702,Instituciones - IPS,860015536,110010945608,1958,CONSULTORES EN PSICOLOGIA HUSI,-74.06703130013067,4.6284055499642776,195.0,9116,AV. 39,Avenida 39 - Avenida Calle,Caracas,3,2,0,0,SENCILLA,NO,4.62859306,-74.06823856,0.135418158203987,0.135418158203987,1.0,1.0
32409,DIAGONAL 40 A No 14 - 92,Instituciones - IPS,860015536,110010945609,2795,CENTRO DE ATENCIÓN INTEGRAL EN CUIDADOS PALIATIVOS,-74.06930759961958,4.628854679853202,195.0,9116,AV. 39,Avenida 39 - Avenida Calle,Caracas,3,2,0,0,SENCILLA,NO,4.62859306,-74.06823856,0.12200308861940054,0.12200308861940054,1.0,1.0
32558,KR 7 # 40 B - 17 Sótano 1,Instituciones - IPS,860015536,110010945604,20,PUNTO DE TOMA DE MUESTRAS TEUSAQUILLO,-74.06563516636385,4.627654403192802,195.0,9116,AV. 39,Avenida 39 - Avenida Calle,Caracas,3,2,0,0,SENCILLA,NO,4.62859306,-74.06823856,0.30683773116094726,0.30683773116094726,1.0,1.0
32735,AK 45 Nº 123-24 Sótano CS 8 Piso 1,Instituciones - IPS,860015536,110010945606,1481,PUNTO DE TOMA DE MUESTRAS SANTA BARBARA,-74.05385317032116,4.704346010203197,195.0,2202,Calle 127,Calle 127,Autonorte,2,1,0,0,SENCILLA,NO,4.70524465,-74.05401073,0.10143827034770397,0.10143827034770397,1.0,1.0
32898,CLL 93 No 19 B - 94,Instituciones - IPS,860015536,110010945607,1777,INTELLECTUS CENTRO DE MEMORIA Y COGNICION,-74.05648680974865,4.679366490069415,195.0,2302,Virrey,Calle 90,Autonorte,3,1,0,0,SENCILLA,NO,4.67739343,-74.05858701,0.31985630540382537,0.31985630540382537,1.0,1.0
33063,KR 7 # 43 - 82 EDF 53 JESÚS EMILIO RAMIREZ LAB 303 A,Instituciones - IPS,860015536,110010945610,136,HOSPITAL UNIVERSITARIO SAN IGNACIO LABORATORIO CLINICO DE ERRORES INNATOS DEL METABOLISMO,-74.06344857713077,4.630614338114498,195.0,9117,Calle 45,Calle 45 - Calle 42A,Caracas,3,2,0,0,SENCILLA,NO,4.633374099999999,-74.06738051,0.5329887229458481,0.5329887229458481,1.0,1.0
33154,CRA 7 # 40 62,Instituciones - IPS,860015536,110010945601,668,HOSPITAL UNIVERSITARIO SAN IGNACIO,-74.06429083035465,4.628459450401097,195.0,9116,AV. 39,Avenida 39 - Avenida Calle,Caracas,3,2,0,0,SENCILLA,NO,4.62859306,-74.06823856,0.4377881188873413,0.4377881188873413,1.0,1.0
33363,CR 89 A NO. 79 51 P 4,Instituciones - IPS,800251440,110012482601,2000,UNIDAD DE ATENCION PRIMARIA CALLE 80,-74.10315295026888,4.7047771400743805,10.0,4002,Carrera 90,Carrera 90,Calle 80,1,1,0,0,SENCILLA,NO,4.70473089,-74.10458038,0.15827171568580703,0.15827171568580703,1.0,1.0
33416,CR 70 C NO. 115 A 15,Instituciones - IPS,800251440,110012482606,2003,UNIDAD DE ATENCION PRIMARIA MORATO,-74.07204376017717,4.698928079636221,10.0,3009,Suba - Calle 116,Av Suba Cll 114,Suba,2,1,0,0,SENCILLA,NO,4.69918067,-74.06975627,0.25505353057708835,0.25505353057708835,1.0,1.0
33605,AC 13 NO. 65-21 LC 100 CC CENTENARIO ZONA INDUSTRIAL,Instituciones - IPS,800251440,110012482615,2566,EPS SANITAS CENTRO MEDICO CALLE 13,-74.1160588501231,4.63426463986116,10.0,5105,Pradera,Av. Americas -Carrera 64,Americas,4,1,1,32,SENCILLA,SI,4.62859531,-74.11905023,0.712266760612129,0.712266760612129,1.0,1.0
33698,AV SUBA CL 145 NO. 88 76,Instituciones - IPS,800251440,110012482603,36,UNIDAD DE ATENCION PRIMARIA SUBA,-74.08353829173568,4.737664289640285,10.0,3002,Suba - TV. 91,Av Suba Kr 90,Suba,2,1,0,0,SENCILLA,NO,4.73820209,-74.08603261,0.28280273502276765,0.28280273502276765,1.0,1.0
33927,CR 7 N 124 45,Instituciones - IPS,800251440,110012482610,39,UNIDAD DE ATENCION PRIMARIA USAQUEN,-74.02912327099821,4.700167237100867,10.0,2202,Calle 127,Calle 127,Autonorte,2,1,0,0,SENCILLA,NO,4.70524465,-74.05401073,2.815236070941628,2.815236070941628,1.0,1.0
34078,CR 49 B NO. 94 - 40,Instituciones - IPS,800251440,110012482618,131,EPS SANITAS CENTRO MEDICO CASTELLANA,-74.06247239857277,4.683142918090392,10.0,3012,Suba - Calle 95,Av Suba Cl 97,Suba,2,1,0,0,SENCILLA,NO,4.68428551,-74.06303712,0.14162847669774498,0.14162847669774498,1.0,1.0
34169,CR 21 NO. 166 34,Instituciones - IPS,800251440,110012482602,2001,UNIDAD DE ATENCION PRIMARIA TOBERIN,-74.04415845026533,4.746944489873148,10.0,2101,Toberín,Calle 165,Autonorte,5,1,0,0,SENCILLA,NO,4.74733097,-74.04703429,0.3215663670150084,0.3215663670150084,1.0,1.0
34318,CL 166 N 22 68 P 1,Instituciones - IPS,800251440,110012482607,2106,UNIDAD DE SALUD MENTAL TOBERIN,-74.04589329021674,4.7471197703991574,10.0,2101,Toberín,Calle 165,Autonorte,5,1,0,0,SENCILLA,NO,4.74733097,-74.04703429,0.12860061869100609,0.12860061869100609,1.0,1.0
34523,AK 45 NO. 123 14,Instituciones - IPS,800251440,110012482611,2235,UNIDAD DE ATENCION PRIMARIA SANTA BARBARA,-74.05365313976192,4.704355659628111,10.0,2202,Calle 127,Calle 127,Autonorte,2,1,0,0,SENCILLA,NO,4.70524465,-74.05401073,0.10649864373617113,0.10649864373617113,1.0,1.0
34659,CL 14 NO. 62 - 04 Y CR 62 NO. 14 - 41,Instituciones - IPS,800251440,110012482616,2734,EPS SANITAS UNIDAD DE URGENCIAS PUENTE ARANDA,-74.11251074010943,4.634057570132011,10.0,5107,Américas - Carrera 53A,Amï¿½ricas - KR 53A,Americas,4,1,0,0,SENCILLA,NO,4.62776126,-74.11111797,0.7169329900877858,0.7169329900877858,1.0,1.0
34773,CR 18 NO. 16 - 46 SUR,Instituciones - IPS,800251440,110012482617,2790,EPS SANITAS CENTRO MEDICO RESTREPO,-74.10022842018273,4.585568210319045,10.0,9105,Fucha,Calle 13 Sur - Calle 16 Su,Caracas,2,1,0,0,SENCILLA,NO,4.58322682,-74.09893378,0.29727739085691024,0.29727739085691024,1.0,1.0
34968,CL 36 NO. 28 - 42/ 50,Instituciones - IPS,800251440,110012482604,2002,UNIDAD DE ATENCION PRIMARIA SOLEDAD,-74.07742565957082,4.625759240125218,10.0,6108,Concejo de Bogotá,Carrera38,Calle 26,2,1,0,0,SENCILLA,NO,4.62508709,-74.07960195,0.25251841569668754,0.25251841569668754,1.0,1.0
35142,CR 23 NO. 45 C - 31 P CONSULTORIOS 312-313-314-317-315 -,Instituciones - IPS,800251440,110012482613,2266,EPS SANITAS CENTRO MEDICO PALERMO,-74.07449821984144,4.6361588596939365,10.0,7107,U. Nacional,Kr 30 Cl 45,NQS,3,2,0,0,SENCILLA,NO,4.63616818,-74.07937689,0.5407093908662675,0.5407093908662675,1.0,1.0
35287,AK 45 N°103 59,Instituciones - IPS,900576488,110012522701,2083,CLINICA SANTA MARGARITA S.A.S.,-74.0571999400319,4.690500680237241,25.0,2205,Calle 106,Calle 106,Autonorte,4,1,0,0,SENCILLA,NO,4.69280155,-74.05614686,0.2812057919728276,0.2812057919728276,1.0,1.0
35429,Calle 119 No. 7-74 Segundo Piso Consultorio 5 y 6,Instituciones - IPS,860037950,110010561809,2127,Centro de Telesalud,-74.03300290965737,4.6964238696281315,216.0,2204,Pepe Sierra,Calle 116,Autonorte,2,1,0,0,SENCILLA,NO,4.69785859,-74.05531281,2.477557714797543,2.477557714797543,1.0,1.0
35578,Calle 119 A N. 7-57,Instituciones - IPS,860037950,110010561811,2529,Unidad Materno Fetal,-74.03251789037087,4.696531360135851,216.0,2204,Pepe Sierra,Calle 116,Autonorte,2,1,0,0,SENCILLA,NO,4.69785859,-74.05531281,2.5304736852666982,2.5304736852666982,1.0,1.0
35727,CL 119 # 7 75,Instituciones - IPS,860037950,110010561801,390,FUNDACION SANTA FE DE BOGOTA,-74.03319863009992,4.695590700123317,216.0,2204,Pepe Sierra,Calle 116,Autonorte,2,1,0,0,SENCILLA,NO,4.69785859,-74.05531281,2.4636677947713213,2.4636677947713213,1.0,1.0
35876,calle 119 No. 7-14 (Segundo Piso),Instituciones - IPS,860037950,110010561808,2101,Centro integral diagnostico de la mujer,-74.0322896302538,4.696165870317598,216.0,2204,Pepe Sierra,Calle 116,Autonorte,2,1,0,0,SENCILLA,NO,4.69785859,-74.05531281,2.5583963813074946,2.5583963813074946,1.0,1.0
36013,AV 15 # 123 - 30 LC 2 PI 1 BL 5,Instituciones - IPS,860037950,110010561805,792,FUNDACION SANTA FE DE BOGOTA - CENTRO DE ATENCION PRIORITARIA,-74.04115094998289,4.702134470042189,216.0,2202,Calle 127,Calle 127,Autonorte,2,1,0,0,SENCILLA,NO,4.70524465,-74.05401073,1.4664883119048637,1.4664883119048637,1.0,1.0
36174,"Calle 119 # 7- 74 Piso 2- Consultorio 1,2,3 y 4",Instituciones - IPS,860037950,110010561806,826,CENTRO DE ESTUDIOS E INVESTIGACIONES EN SALUD,-74.03283314962825,4.696457609872594,216.0,2204,Pepe Sierra,Calle 116,Autonorte,2,1,0,0,SENCILLA,NO,4.69785859,-74.05531281,2.4960950075352026,2.4960950075352026,1.0,1.0
36323,Calle 119 No. 7-90,Instituciones - IPS,860037950,110010561810,2145,EL INSTITUTO DE ONCOLOGIA CARLOS ARDILA LULLE,-74.03308562024054,4.696551880389845,216.0,2204,Pepe Sierra,Calle 116,Autonorte,2,1,0,0,SENCILLA,NO,4.69785859,-74.05531281,2.4675314029878086,2.4675314029878086,1.0,1.0
36498,CARRERA 28 No 63 SUR 20,Instituciones - IPS,900536325,110012427903,2514,PSQ SEDE 4,-74.14904211005211,4.5691509100486565,24.0,8000,Portal del Tunal,Av. Boyaca,Tunal,0,0,0,0,CABECERA,NO,4.57035491,-74.13981319,1.0316703729893086,1.0316703729893086,1.0,1.0
36547,Carrera 40 No 24 D 07,Instituciones - IPS,900536325,110012427901,1919,PSQ SAS,-74.09070591974327,4.632545090304815,24.0,6106,Recinto Ferial,Carrera 43,Calle 26,2,1,0,0,SENCILLA,NO,4.63410021,-74.08920322,0.24008241864112329,0.24008241864112329,1.0,1.0
36796,KRA 28 N° 63 A SUR - 40,Instituciones - IPS,900536325,110012427902,2406,PSQ SAS SEDE 2,-74.14924090003797,4.568860009841193,24.0,8000,Portal del Tunal,Av. Boyaca,Tunal,0,0,0,0,CABECERA,NO,4.57035491,-74.13981319,1.0581193822853359,1.0581193822853359,1.0,1.0
36919,Autopista Norte Nº 118 - 79 consultorio 11,Instituciones - IPS,900536325,110012427905,2668,PSQ SEDE 7,-74.05522037025098,4.701507079667886,24.0,2204,Pepe Sierra,Calle 116,Autonorte,2,1,0,0,SENCILLA,NO,4.69785859,-74.05531281,0.40582286074809293,0.40582286074809293,1.0,1.0
37056,Calle 127 Nº 16 A - 27 Consultorio 408,Instituciones - IPS,900536325,110012427904,2660,PSQ SEDE 6,-74.0448741398488,4.703991669942181,24.0,2202,Calle 127,Calle 127,Autonorte,2,1,0,0,SENCILLA,NO,4.70524465,-74.05401073,1.0220603092377356,1.0220603092377356,1.0,1.0
37177,DIAGONAL 40A No. 13A-32,Instituciones - IPS,860005114,110011509904,2581,LINDE COLOMBIA AGENCIA LISA TEUSAQUILLO,-74.06807706039393,4.627898629756284,2.0,9116,AV. 39,Avenida 39 - Avenida Calle,Caracas,3,2,0,0,SENCILLA,NO,4.62859306,-74.06823856,0.07926456601933372,0.07926456601933372,1.0,1.0
37272,Calle 101 No.45a-42,Instituciones - IPS,860005114,110011509903,1788,LINDE COLOMBIA AGENCIA PROGRAMA LISA BOGOTA,-74.05802965007945,4.687808300415578,2.0,2300,Calle 100,Calle 97,Autonorte,3,2,0,0,SENCILLA,NO,4.68434548,-74.05750794,0.38936471932775135,0.38936471932775135,1.0,1.0
37475,AK 14 No. 40A- 04,Instituciones - IPS,860005114,110011509902,1401,LINDE COLOMBIA AGENCIA REMEO CENTER BOGOTA,-74.0682379998653,4.6279900397597356,2.0,9116,AV. 39,Avenida 39 - Avenida Calle,Caracas,3,2,0,0,SENCILLA,NO,4.62859306,-74.06823856,0.06705282012038837,0.06705282012038837,1.0,1.0
37609,CL 6 A # 70 - 94,Instituciones - IPS,900412444,110012213903,2619,HOSPITAL ORTOPÉDICO 3,-74.13167273038445,4.630601020186481,40.0,5102,AV. Américas - AV. Boyacá,Av. Americas -Carrera 71,Americas,4,1,1,32,SENCILLA,SI,4.6302734,-74.13458973,0.32534291461873166,0.32534291461873166,1.0,1.0
37750,AC 57 # 26 12,Instituciones - IPS,900412444,110012213901,1656,IPS HOSPITAL ORTOPEDICO SAS,-74.07387002975989,4.645662319889274,40.0,7106,Campín,Kr 30 Cl 53,NQS,2,2,0,0,SENCILLA,NO,4.64345924,-74.07879784,0.5985722538085135,0.5985722538085135,1.0,1.0
37907,calle 6 a no 70b-06,Instituciones - IPS,900412444,110012213904,2817,HOSPITAL ORTOPEDICO SAS AMERICAS SEDE 2,-74.13191414004064,4.63053400971239,40.0,5102,AV. Américas - AV. Boyacá,Av. Americas -Carrera 71,Americas,4,1,1,32,SENCILLA,SI,4.6302734,-74.13458973,0.297953551981638,0.297953551981638,1.0,1.0
38084,TRANSVERSAL 5 ESTE NUMERO 19-50 SUR,Instituciones - IPS,900959051,110013028902,2837,UNIDAD DE SERVICIOS DE SALUD SAN BLAS,-74.08337294962112,4.5696833801320045,139.0,10002,AV. 1 Mayo,AV. 1? Mayo con Cra 7,Cr 7-10,3,2,0,0,SENCILLA,NO,4.57572274,-74.09456268,1.41041508798689,1.41041508798689,1.0,1.0
38254,CARRERA 3 A ESTE NUMERO 31 C-21 SUR,Instituciones - IPS,900959051,110013028905,2840,UNIDAD DE SERVICIOS DE SALUD BELLO HORIZONTE,-74.09263136962156,4.559814949714455,139.0,10000,Portal 20 de Julio,Kra 5 a Cl 33 Sur,Cr 7-10,0,0,1,216,CABECERA,SI,4.56535867,-74.09819184,0.8717002464796938,0.8717002464796938,1.0,1.0
38382,CALLE 22 SUR NUMERO 8-A-58,Instituciones - IPS,900959051,110013028906,2841,UNIDAD DE SERVICIOS DE SALUD PRIMERO DE MAYO,-74.09365779993657,4.575299280174812,139.0,10002,AV. 1 Mayo,AV. 1? Mayo con Cra 7,Cr 7-10,3,2,0,0,SENCILLA,NO,4.57572274,-74.09456268,0.11080034601869455,0.11080034601869455,1.0,1.0
38502,KR 1 F NUMERO 48 X- 40 SUR,Instituciones - IPS,900959051,110013028918,2848,UNIDAD DE SERVICIOS DE SALUD DIANA TURBAY,-74.10645674008484,4.545560369785537,139.0,9001,Molinos,Carrera 9A,Caracas,2,2,0,0,INTERMEDIA,NO,4.55683171,-74.12173166,2.1065414204483215,2.1065414204483215,1.0,1.0
38638,DIAGONAL 45 BIS B SUR NUMERO 13 F-72,Instituciones - IPS,900959051,110013028924,79,UNIDAD DE SERVICIOS DE SALUD SAN JORGE,-74.12089984513807,4.571693366443748,139.0,9004,Santa Lucía,Calle 46A Sur - Diagonal 4,Caracas,2,2,0,0,SENCILLA,NO,4.57071884,-74.12473269,0.4384393481263947,0.4384393481263947,1.0,1.0
38853,CALLE 11 SUR NUMERO 1 B-10 E,Instituciones - IPS,900959051,110013028903,2838,UNIDAD DE SERVICIOS DE SALUD DESPERTAR,-74.08032944037053,4.574823999704225,139.0,10003,Ciudad Jardín,Kra 10- Cl12 sur,Cr 7-10,2,1,0,0,SENCILLA,NO,4.58121677,-74.09042752,1.325922445845381,1.325922445845381,1.0,1.0
38999,CARRERA 12 A ESTE NUMERO 42-32 SUR,Instituciones - IPS,900959051,110013028904,2839,UNIDAD DE SERVICIOS DE SALUD ALTAMIRA,-74.08474815982832,4.546063280235516,139.0,10000,Portal 20 de Julio,Kra 5 a Cl 33 Sur,Cr 7-10,0,0,1,216,CABECERA,SI,4.56535867,-74.09819184,2.6122629697706112,2.6122629697706112,1.0,1.0
39056,CARRERA 5 NUMERO 33 A-45,Instituciones - IPS,900959051,110013028915,2845,UNIDAD DE SERVICIOS DE SALUD PERSEVERANCIA,-74.06550890006582,4.619988159994673,139.0,9115,Calle 34,Avenida Calle 34 - Calle 3,Caracas,3,2,0,0,SENCILLA,NO,4.62221301,-74.06958764,0.5153269332400998,0.5153269332400998,1.0,1.0
39283,CARRERA 23 NUMERO 22 A -26,Instituciones - IPS,900959051,110013028916,2846,UNIDAD DE SERVICIOS DE SALUD SAMPER MENDOZA,-74.08104275031683,4.616991209597648,139.0,6109,Centro Memoria,Carrera 20,Calle 26,2,2,0,0,SENCILLA,NO,4.62042703,-74.07649587,0.632394472457667,0.632394472457667,1.0,1.0
39370,CARRERA 21 NUMERO 22-51 SUR,Instituciones - IPS,900959051,110013028920,2850,UNIDAD DE SERVICIOS DE SALUD OLAYA,-74.10503359038418,4.584190979567926,139.0,9104,Restrepo,Calle 19 Sur - Av. 1 de M,Caracas,2,2,0,0,SENCILLA,NO,4.58176282,-74.10152688,0.4732577680099441,0.4732577680099441,1.0,1.0
39510,CALLE 35 B SUR NUMERO 25 A-37,Instituciones - IPS,900959051,110013028921,2851,UNIDAD DE SERVICIOS DE SALUD BRAVO PAEZ,-74.1201061701098,4.583690800072523,139.0,9100,Calle 40 S,Calle 38 Sur - Calle 40 Su,Caracas,3,2,0,0,INTERMEDIA,NO,4.57596786,-74.11952549,0.8611603277678355,0.8611603277678355,1.0,1.0
39715,CALLE 31 B SUR NUMERO 23 B-14,Instituciones - IPS,900959051,110013028923,2852,UNIDAD DE SERVICIOS DE SALUD QUIROGA,-74.11348589009643,4.58207931037765,139.0,9101,Quiroga,Calle 31 Sur - Calle 32 Su,Caracas,2,1,0,0,SENCILLA,NO,4.57676184,-74.11424032,0.5971594881703294,0.5971594881703294,1.0,1.0
39792,CARRERA 32 NUMERO 12-81 Edificio Hemocentro piso 4,Instituciones - IPS,900959051,110013028927,2854,UNIDAD DE SERVICIOS DE SALUD CITOCENTRO,-74.09393823959522,4.615242650043968,139.0,7111,Ricaurte - NQS,Kr 30 Cl 10,NQS,3,2,1,165,INTERCAMBIO,SI,4.61367605,-74.09211642,0.26667735019254507,0.26667735019254507,1.0,1.0
40042,CALLE 37 BIS B SUR NUMERO 3-25 ESTE,Instituciones - IPS,900959051,110013028907,76,UNIDAD DE SERVICIOS DE SALUD LA VICTORIA 1,-74.09403615596118,4.553549051329619,139.0,10000,Portal 20 de Julio,Kra 5 a Cl 33 Sur,Cr 7-10,0,0,1,216,CABECERA,SI,4.56535867,-74.09819184,1.3916153768158495,1.3916153768158495,1.0,1.0
40191,TRANSVERSAL 10 B ESTE NUMERO 36 D-13 SUR,Instituciones - IPS,900959051,110013028908,77,UNIDAD DE SERVICIOS DE SALUD LOS ALPES,-74.08367757911375,4.553906204410285,139.0,10000,Portal 20 de Julio,Kra 5 a Cl 33 Sur,Cr 7-10,0,0,1,216,CABECERA,SI,4.56535867,-74.09819184,2.0518142767036687,2.0518142767036687,1.0,1.0
40295,CALLE 1 C NUMERO 5 A 30,Instituciones - IPS,900959051,110013028911,78,UNIDAD DE SERVICIOS DE SALUD CRUCES,-74.07947713499863,4.586664690759057,139.0,10010,San Bernardo,Kra 10- Cl1b  sur,Cr 7-10,2,2,0,0,SENCILLA,NO,4.58944781,-74.08474329,0.6606578349611547,0.6606578349611547,1.0,1.0
40415,CARRERA 14 B NUMERO 1-45 SUR,Instituciones - IPS,900959051,110013028901,2836,UNIDAD DE SERVICIOS DE SALUD SANTA CLARA,-74.0923850596555,4.591215189668986,139.0,9107,Hortúa,Calle 1 Sur - Calle 3 Sur,Caracas,2,2,0,0,SENCILLA,NO,4.59079985,-74.09021346,0.24508680179447298,0.24508680179447298,1.0,1.0
40543,KR 3 # 12 D 23,Instituciones - IPS,900959051,110013028910,2842,UNIDAD DE SERVICIOS DE SALUD LA CANDELARIA,-74.06957444956463,4.599774939787407,139.0,14005,Las Aguas,carrera 4,Eje Ambiental,1,2,0,0,INTERCAMBIO,NO,4.60266984,-74.06817769,0.35719074296779524,0.35719074296779524,1.0,1.0
40735,CARRERA 18 A NUMERO 3 A 27,Instituciones - IPS,900959051,110013028912,2843,UNIDAD DE SERVICIOS DE SALUD LA FAYETTE,-74.0899195201705,4.596841470437384,139.0,7200,Tygua - San José,Carrera 18,Calle 6,4,2,0,0,SENCILLA,NO,4.59977591,-74.08872537,0.3521170450589533,0.3521170450589533,1.0,1.0
40884,CARRERA 18 NUMERO 8 -99,Instituciones - IPS,900959051,110013028914,2844,UNIDAD DE SERVICIOS DE SALUD RICAURTE,-74.08620537993276,4.602154190220593,139.0,7200,Tygua - San José,Carrera 18,Calle 6,4,2,0,0,SENCILLA,NO,4.59977591,-74.08872537,0.38463971048841694,0.38463971048841694,1.0,1.0
40991,CL 6 NUMERO 4 A 26 ESTE,Instituciones - IPS,900959051,110013028917,2847,UNIDAD DE SERVICIOS DE SALUD JORGE ELIECER GAITAN,-74.06988044000491,4.589946600328997,139.0,14004,Museo del Oro,carrera 2,Eje Ambiental,1,2,0,0,SENCILLA,NO,4.60118385,-74.07295785,1.295244006386805,1.295244006386805,1.0,1.0
41184,TRANSVERSAL 5 L BIS NUMERO 48 F- 69 SUR,Instituciones - IPS,900959051,110013028919,2849,UNIDAD DE SERVICIOS DE SALUD CHIRCALES,-74.11223316966979,4.557681369862528,139.0,9001,Molinos,Carrera 9A,Caracas,2,2,0,0,INTERMEDIA,NO,4.55683171,-74.12173166,1.0570752606783602,1.0570752606783602,1.0,1.0
41278,CALLE 49 A NUMERO 16-63,Instituciones - IPS,900959051,110013028926,2853,UNIDAD DE SERVICIOS DE SALUD CRONICOS,-74.06955716957181,4.637311690346207,139.0,9118,Marly,Calle 51 - Calle 49,Caracas,3,2,0,0,SENCILLA,NO,4.63951515,-74.06637045,0.4298515457843006,0.4298515457843006,1.0,1.0
41487,KR 10 NUMERO 1-66 SUR,Instituciones - IPS,900959051,110013028928,2855,UNIDAD DE SERVICIOS DE SALUD MATERNO INFANTIL,-74.08535754008615,4.588157530147656,139.0,10010,San Bernardo,Kra 10- Cl1b  sur,Cr 7-10,2,2,0,0,SENCILLA,NO,4.58944781,-74.08474329,0.15880684387166663,0.15880684387166663,1.0,1.0
41681,DIAGONAL 39 SUR NUMERO 3-20 ESTE,Instituciones - IPS,900959051,110013028929,2856,UNIDAD DE SERVICIOS DE SALUD VICTORIA,-74.0943908602427,4.552774260285198,139.0,10000,Portal 20 de Julio,Kra 5 a Cl 33 Sur,Cr 7-10,0,0,1,216,CABECERA,SI,4.56535867,-74.09819184,1.46137182537142,1.46137182537142,1.0,1.0
41754,CARRERA 12 D NUMERO 26 A -62 SUR,Instituciones - IPS,900959051,110013028925,2857,UNIDAD DE SERVICIOS DE SALUD SAN JOSE OBRERO,-74.10223633989568,4.575949719690311,139.0,9104,Restrepo,Calle 19 Sur - Av. 1 de M,Caracas,2,2,0,0,SENCILLA,NO,4.58176282,-74.10152688,0.6511529789085753,0.6511529789085753,1.0,1.0
41936,KR 18 A BIS No. 60 G 84 SUR,Instituciones - IPS,900958564,110013029403,2889,UNIDAD DE SERVICIOS DE SALUD MEISSEN AMBULATORIO,-74.13861296964079,4.558964569589748,108.0,8001,Parque,Calle 55 Sur,Tunal,2,1,0,0,SENCILLA,NO,4.56841787,-74.13489203,1.129176820671238,1.129176820671238,1.0,1.0
42153,CL 48 A SUR No. 28 - 48,Instituciones - IPS,900958564,110013029408,2894,UNIDAD DE SERVICIOS DE SALUD EL CARMEN - SALUD ORAL,-74.13151052967842,4.583265019879038,108.0,7006,General Santander,AutoSur-Kr43,NQS,4,1,1,48,INTERMEDIA,SI,4.59360505,-74.1282667,1.2046640668006017,1.2046640668006017,1.0,1.0
42193,CL 57 SUR No. 67 - 27,Instituciones - IPS,900958564,110013029411,2897,UNIDAD DE SERVICIOS DE SALUD ISLA DEL SOL,-74.15740286964028,4.5955130998430045,108.0,7002,Madelena,AutoSur-Kr67,NQS,2,1,0,0,SENCILLA,NO,4.59624121,-74.15725663,0.08256873801064438,0.08256873801064438,1.0,1.0
42385,KR 12 No. 53 - 90 SUR,Instituciones - IPS,900958564,110013029412,2898,UNIDAD DE SERVICIOS DE SALUD AMBULATORIA - ABRAHAM LINCON,-74.12597813013535,4.559092800426431,108.0,9002,Consuelo,Carrera 11A - Carrera 10C,Caracas,2,1,0,0,SENCILLA,NO,4.56016875,-74.12383771,0.2657096418471362,0.2657096418471362,1.0,1.0
42612,CL 76 B SUR No. 7 - 64,Instituciones - IPS,900958564,110013029433,2912,UNIDAD DE SERVICIOS DE SALUD BETANIA,-74.11030371959353,4.512121360347424,108.0,9000,Portal de Usme,Calle 65C Sur,Caracas,0,0,0,0,CABECERA,NO,4.53079248,-74.12017173,2.3466692266497473,2.3466692266497473,1.0,1.0
42761,KR 1 D ESTE No. 65 G - 08 SUR,Instituciones - IPS,900958564,110013029443,2920,UNIDAD DE SERVICIOS DE SALUD FISCALA,-74.11455370040667,4.5328521496792895,108.0,9000,Portal de Usme,Calle 65C Sur,Caracas,0,0,0,0,CABECERA,NO,4.53079248,-74.12017173,0.6635221435696879,0.6635221435696879,1.0,1.0
42910,CL 75 SUR No. 9 A - 39,Instituciones - IPS,900958564,110013029444,2921,UNIDAD DE SERVICIOS DE SALUD SANTA LIBRADA II,-74.11340853976057,4.515111020447056,108.0,9000,Portal de Usme,Calle 65C Sur,Caracas,0,0,0,0,CABECERA,NO,4.53079248,-74.12017173,1.8980308549922524,1.8980308549922524,1.0,1.0
43059,KR 4 No. 3 - 29 PASQUILLA,Instituciones - IPS,900958564,110013029418,2968,UNIDAD DE SERVICIOS DE SALUD MOCHUELO,-74.14830369039699,4.4885344498823505,108.0,9000,Portal de Usme,Calle 65C Sur,Caracas,0,0,0,0,CABECERA,NO,4.53079248,-74.12017173,5.639518597879159,5.639518597879159,1.0,1.0
43203,KR 18 C No. 66 A - 55 SUR,Instituciones - IPS,900958564,110013029428,2969,UNIDAD DE SERVICIOS DE SALUD VISTA HERMOSA,-74.14464843023455,4.552677169566119,108.0,8000,Portal del Tunal,Av. Boyaca,Tunal,0,0,0,0,CABECERA,NO,4.57035491,-74.13981319,2.037430260100144,2.037430260100144,1.0,1.0
43277,KR 18 A BIS No. 60 G 20 SUR,Instituciones - IPS,900958564,110013029404,2890,UNIDAD DE SERVICIOS DE SALUD MEISSEN APOYO DIAGNOSTICO,-74.13794207993882,4.559271879763097,108.0,8001,Parque,Calle 55 Sur,Tunal,2,1,0,0,SENCILLA,NO,4.56841787,-74.13489203,1.0717082314905189,1.0717082314905189,1.0,1.0
43360,AK 54 No. 47A - 08 SUR,Instituciones - IPS,900958564,110013029405,2891,UNIDAD DE SERVICIOS DE SALUD VENECIA,-74.14151263974978,4.593079309850445,108.0,7004,Venecia,AutoSur-Av 54,NQS,2,1,0,0,SENCILLA,NO,4.59571313,-74.14159012,0.29299331986539734,0.29299331986539734,1.0,1.0
43596,AV CARACAS No. 51 - 21 SUR,Instituciones - IPS,900958564,110013029407,2893,UNIDAD DE SERVICIOS DE SALUD AMBULATORIA TUNJUELITO,-74.12548772005881,4.564123140389322,108.0,9003,Socorro,Carrera 16B - Carrera 14A,Caracas,2,2,0,0,SENCILLA,NO,4.56458879,-74.12553274,0.05201778056069076,0.05201778056069076,1.0,1.0
43727,DG 53 SUR No. 59 A - 11,Instituciones - IPS,900958564,110013029409,2895,UNIDAD DE SERVICIOS DE SALUD NUEVO MUZÚ,-74.14810165030643,4.5848294201503474,108.0,7003,Sevillana,Sevillana,NQS,2,1,0,0,SENCILLA,NO,4.59529816,-74.14767232,1.1650429965346727,1.1650429965346727,1.0,1.0
43873,CL 58 SUR No. 19 B - 25,Instituciones - IPS,900958564,110013029410,2896,UNIDAD DE SERVICIOS DE SALUD SAN BENITO,-74.1370072301721,4.5654103402896915,108.0,8001,Parque,Calle 55 Sur,Tunal,2,1,0,0,SENCILLA,NO,4.56841787,-74.13489203,0.4084191575452356,0.4084191575452356,1.0,1.0
43986,DG 70 No. 56 - 56 SUR,Instituciones - IPS,900958564,110013029419,2900,UNIDAD DE SERVICIOS DE SALUD SIERRA MORENA,-74.16574274968629,4.578522830021946,108.0,7001,Perdomo,AutoSur-Kr78C,NQS,2,1,0,0,SENCILLA,NO,4.59568824,-74.16341884,1.926008201629217,1.926008201629217,1.0,1.0
44112,KR 42 No. 77 - 80 SUR,Instituciones - IPS,900958564,110013029421,2901,UNIDAD DE SERVICIOS DE SALUD POTOSÍ,-74.16851241021746,4.567966700352127,108.0,7000,Portal del Sur,AutoSur-Kr 82,NQS,0,0,1,220,CABECERA,SI,4.59581727,-74.17003806,3.1014555106544917,3.1014555106544917,1.0,1.0
44395,CL 75 BIS A SUR No. 25 - 48,Instituciones - IPS,900958564,110013029422,2902,UNIDAD DE SERVICIOS DE SALUD CASA DE TEJA,-74.15556075018267,4.541858909817662,108.0,8000,Portal del Tunal,Av. Boyaca,Tunal,0,0,0,0,CABECERA,NO,4.57035491,-74.13981319,3.6175845320332827,3.6175845320332827,1.0,1.0
44544,CL 67 SUR No. 20 A - 51,Instituciones - IPS,900958564,110013029423,2903,UNIDAD DE SERVICIOS DE SALUD SAN FRANCISCO,-74.14941662038899,4.562345250070448,108.0,8000,Portal del Tunal,Av. Boyaca,Tunal,0,0,0,0,CABECERA,NO,4.57035491,-74.13981319,1.3879156856567696,1.3879156856567696,1.0,1.0
44693,TV 36 No. 59 B - 59 SUR,Instituciones - IPS,900958564,110013029426,2906,UNIDAD DE SERVICIOS DE SALUD CANDELARIA II,-74.14978541025417,4.571916950427048,108.0,8000,Portal del Tunal,Av. Boyaca,Tunal,0,0,0,0,CABECERA,NO,4.57035491,-74.13981319,1.1188967802698242,1.1188967802698242,1.0,1.0
44842,CL 64 C SUR No. 27 - 32,Instituciones - IPS,900958564,110013029429,2908,UNIDAD DE SERVICIOS DE SALUD CANDELARIA III,-74.14974365027156,4.568243850215439,108.0,8000,Portal del Tunal,Av. Boyaca,Tunal,0,0,0,0,CABECERA,NO,4.57035491,-74.13981319,1.1254594505472906,1.1254594505472906,1.0,1.0
44996,KR 9 B No. 75 - 49 SUR,Instituciones - IPS,900958564,110013029431,2910,UNIDAD DE SERVICIOS DE SALUD SANTA LIBRADA I,-74.11348180994841,4.514656460417614,108.0,9000,Portal de Usme,Calle 65C Sur,Caracas,0,0,0,0,CABECERA,NO,4.53079248,-74.12017173,1.9414515413704372,1.9414515413704372,1.0,1.0
45145,KR 10 No. 81 A - 06 SUR,Instituciones - IPS,900958564,110013029435,2914,UNIDAD DE SERVICIOS DE SALUD YOMASA,-74.1124807103278,4.508012690330578,108.0,9000,Portal de Usme,Calle 65C Sur,Caracas,0,0,0,0,CABECERA,NO,4.53079248,-74.12017173,2.67262119819747,2.67262119819747,1.0,1.0
45294,CL 68 B SUR No. 9 A - 29,Instituciones - IPS,900958564,110013029437,2915,UNIDAD DE SERVICIOS DE SALUD SANTA MARTHA,-74.11648904971939,4.526397830220126,108.0,9000,Portal de Usme,Calle 65C Sur,Caracas,0,0,0,0,CABECERA,NO,4.53079248,-74.12017173,0.6367357091939747,0.6367357091939747,1.0,1.0
45443,KR 14 B ESTE No. 74 B - 44 SUR,Instituciones - IPS,900958564,110013029438,2916,UNIDAD DE SERVICIOS DE SALUD LA FLORA,-74.08993558025114,4.5161553497873,108.0,9000,Portal de Usme,Calle 65C Sur,Caracas,0,0,0,0,CABECERA,NO,4.53079248,-74.12017173,3.725915796638542,3.725915796638542,1.0,1.0
45592,KR 14 C No. 73 D - 36 SUR,Instituciones - IPS,900958564,110013029440,2918,UNIDAD DE SERVICIOS DE SALUD SAN JUAN BAUTISTA,-74.11803903974155,4.516259740369802,108.0,9000,Portal de Usme,Calle 65C Sur,Caracas,0,0,0,0,CABECERA,NO,4.53079248,-74.12017173,1.6331676900034933,1.6331676900034933,1.0,1.0
45741,KR 14 A ESTE No. 92 - 35 SUR,Instituciones - IPS,900958564,110013029442,2919,UNIDAD DE SERVICIOS DE SALUD LOS ARRAYANES,-74.08600793023331,4.497607729905638,108.0,9000,Portal de Usme,Calle 65C Sur,Caracas,0,0,0,0,CABECERA,NO,4.53079248,-74.12017173,5.2875059863375515,5.2875059863375515,1.0,1.0
45885,KR 45 C No. 69 - 21 SUR,Instituciones - IPS,900958564,110013029414,2965,UNIDAD DE SERVICIOS DE SALUD MANUELA BELTRÁN I,-74.15744247007297,4.572704869688708,108.0,8000,Portal del Tunal,Av. Boyaca,Tunal,0,0,0,0,CABECERA,NO,4.57035491,-74.13981319,1.9714439399386374,1.9714439399386374,1.0,1.0
45959,KR 18 F No. 72 - 45 SUR,Instituciones - IPS,900958564,110013029416,2966,UNIDAD DE SERVICIOS DE SALUD LA ESTRELLA,-74.14601989985691,4.544975730259929,108.0,8001,Parque,Calle 55 Sur,Tunal,2,1,0,0,SENCILLA,NO,4.56841787,-74.13489203,2.883749558778078,2.883749558778078,1.0,1.0
46188,KR 1 No. 3 - 29 PASQUILLA,Instituciones - IPS,900958564,110013029417,2967,UNIDAD DE SERVICIOS DE SALUD PASQUILLA,-74.15545360991538,4.444947309672721,108.0,9000,Portal de Usme,Calle 65C Sur,Caracas,0,0,0,0,CABECERA,NO,4.53079248,-74.12017173,10.315738833597567,10.315738833597567,1.0,1.0
46284,CR 20 47B-35 SUR,Instituciones - IPS,900958564,110013029401,2887,UNIDAD DE SERVICIOS DE SALUD EL TUNAL,-74.12823188999548,4.571451640422253,108.0,8002,Biblioteca,Calle 48A Sur,Tunal,2,1,0,0,SENCILLA,NO,4.57032486,-74.13025087,0.25647312626801894,0.25647312626801894,1.0,1.0
46406,KR 18 B No. 60 G - 36 SUR,Instituciones - IPS,900958564,110013029402,2888,UNIDAD DE SERVICIOS DE SALUD MEISSEN,-74.13870319013972,4.559554840121701,108.0,8001,Parque,Calle 55 Sur,Tunal,2,1,0,0,SENCILLA,NO,4.56841787,-74.13489203,1.0722458898866039,1.0722458898866039,1.0,1.0
46623,CL 48 B SUR No. 28 - 80,Instituciones - IPS,900958564,110013029406,2892,UNIDAD DE SERVICIOS DE SALUD EL CARMEN - MATERNO INFANTIL,-74.13187109007728,4.583144410004492,108.0,7006,General Santander,AutoSur-Kr43,NQS,4,1,1,48,INTERMEDIA,SI,4.59360505,-74.1282667,1.229865540330385,1.229865540330385,1.0,1.0
46779,KR 28 No. 63 A - 04 SUR,Instituciones - IPS,900958564,110013029415,2899,UNIDAD DE SERVICIOS DE SALUD CANDELARIA I,-74.14911844978327,4.56914780011485,108.0,8000,Portal del Tunal,Av. Boyaca,Tunal,0,0,0,0,CABECERA,NO,4.57035491,-74.13981319,1.0401055817669815,1.0401055817669815,1.0,1.0
46901,KR 76 B No. 60 A - 42 SUR,Instituciones - IPS,900958564,110013029424,2904,UNIDAD DE SERVICIOS DE SALUD SAN ISIDRO,-74.17964292016833,4.591129500332629,108.0,7010,Bosa,soacha,Soacha,2,1,0,0,SENCILLA,NO,4.59693732,-74.17918435,0.6477971248041883,0.6477971248041883,1.0,1.0
47077,KR 27 L No. 71 H - 46 SUR,Instituciones - IPS,900958564,110013029425,2905,UNIDAD DE SERVICIOS DE SALUD PARAÍSO,-74.1619085002035,4.551448149636896,108.0,8000,Portal del Tunal,Av. Boyaca,Tunal,0,0,0,0,CABECERA,NO,4.57035491,-74.13981319,3.227683045033526,3.227683045033526,1.0,1.0
47226,KR 46 No. 69 D - 09 SUR,Instituciones - IPS,900958564,110013029427,2907,UNIDAD DE SERVICIOS DE SALUD MANUELA BELTRÁN II,-74.15796047998828,4.573078140392034,108.0,8000,Portal del Tunal,Av. Boyaca,Tunal,0,0,0,0,CABECERA,NO,4.57035491,-74.13981319,2.0341313780342474,2.0341313780342474,1.0,1.0
47380,KR 13 No. 135 A - 42 SUR,Instituciones - IPS,900958564,110013029430,2909,UNIDAD DE SERVICIOS DE SALUD USME,-74.12177583010086,4.4731294696430774,108.0,9000,Portal de Usme,Calle 65C Sur,Caracas,0,0,0,0,CABECERA,NO,4.53079248,-74.12017173,6.414299411713107,6.414299411713107,1.0,1.0
47529,KR 6 B ESTE No. 89 - 44 SUR,Instituciones - IPS,900958564,110013029432,2911,UNIDAD DE SERVICIOS DE SALUD LA REFORMA,-74.10207696978114,4.501046359567778,108.0,9000,Portal de Usme,Calle 65C Sur,Caracas,0,0,0,0,CABECERA,NO,4.53079248,-74.12017173,3.868276719087558,3.868276719087558,1.0,1.0
47678,CL 76 SUR No. 14 - 74,Instituciones - IPS,900958564,110013029434,2913,UNIDAD DE SERVICIOS DE SALUD MARICHUELA,-74.1165977997677,4.513344350383627,108.0,9000,Portal de Usme,Calle 65C Sur,Caracas,0,0,0,0,CABECERA,NO,4.53079248,-74.12017173,1.9801778003120214,1.9801778003120214,1.0,1.0
47827,KR 5 No. 103 - 10 SUR,Instituciones - IPS,900958564,110013029439,2917,UNIDAD DE SERVICIOS DE SALUD LORENZO ALCANTUZ,-74.11440987024822,4.494897400383852,108.0,9000,Portal de Usme,Calle 65C Sur,Caracas,0,0,0,0,CABECERA,NO,4.53079248,-74.12017173,4.042130948192587,4.042130948192587,1.0,1.0
47976,Carrera 18 C BIS A 80 A 41 SUR,Instituciones - IPS,900958564,110013029448,2922,UNIDAD DE SERVICIOS DE SALUD LIMONAR,-74.14500343006178,4.536517999679962,108.0,9000,Portal de Usme,Calle 65C Sur,Caracas,0,0,0,0,CABECERA,NO,4.53079248,-74.12017173,2.825187746758802,2.825187746758802,1.0,1.0
48001,CALLE 10 # 86 - 58,Instituciones - IPS,900959048,110013029603,2925,Unidad de Servicios de Salud Patio Bonito Tintal,-74.14872494995959,4.6516509401492225,158.0,5002,Biblioteca Tintal,av.Cali - Calle 26 sur,Americas,4,2,0,0,SENCILLA,NO,4.63996012,-74.15698977,1.5902600995254663,1.5902600995254663,1.0,1.0
48258,Carrera 80C No. 2 - 40,Instituciones - IPS,900959048,110013029605,2927,Unidad de Servicios de Salud 10 Abastos,-74.15128065963785,4.620826079615661,158.0,5100,Banderas,Av. Americas -Carrera 78,Americas,0,2,1,101,INTERMEDIA,SI,4.63139347,-74.14723714,1.2576015177787687,1.2576015177787687,1.0,1.0
48367,Carrera 59 No. 14 - 44,Instituciones - IPS,900959048,110013029606,2928,Unidad de Servicios de Salud 11 Puente Aranda,-74.11081480978622,4.632399690323989,158.0,5107,Américas - Carrera 53A,Amï¿½ricas - KR 53A,Americas,4,1,0,0,SENCILLA,NO,4.62776126,-74.11111797,0.5168631939495679,0.5168631939495679,1.0,1.0
48560,Carrera 52 No. 37 - 05 sur,Instituciones - IPS,900959048,110013029607,2929,Unidad de Servicios de Salud 26 Alcalá Muzú,-74.12982318006281,4.601893359992927,158.0,7006,General Santander,AutoSur-Kr43,NQS,4,1,1,48,INTERMEDIA,SI,4.59360505,-74.1282667,0.9376254366916916,0.9376254366916916,1.0,1.0
48575,Carrera 72 G No. 39 - 95 sur,Instituciones - IPS,900959048,110013029617,2938,Unidad de Servicios de Salud 72 Argelia,-74.1435882196716,4.607817939938465,158.0,7004,Venecia,AutoSur-Av 54,NQS,2,1,0,0,SENCILLA,NO,4.59571313,-74.14159012,1.3640908843422959,1.3640908843422959,1.0,1.0
48746,Calle 2A No. 88B - 47,Instituciones - IPS,900959048,110013029620,2940,Unidad de Servicios de Salud 92 Patios,-74.16129532995349,4.64295488974623,158.0,5002,Biblioteca Tintal,av.Cali - Calle 26 sur,Americas,4,2,0,0,SENCILLA,NO,4.63996012,-74.15698977,0.5818917230703695,0.5818917230703695,1.0,1.0
48938,Calle 23 No 112 - 60,Instituciones - IPS,900959048,110013029627,2947,Unidad de Servicios de Salud 49 Internacional,-74.14526286980404,4.686654839946204,158.0,6000,Portal El Dorado,carrera 87,Calle 26,0,0,1,532,CABECERA,SI,4.68113815,-74.12098887,2.759184898593907,2.759184898593907,1.0,1.0
49087,Carrera 96 No 25 G- 18,Instituciones - IPS,900959048,110013029628,2948,Unidad de Servicios de Salud 50 Puerta De Teja,-74.12558121042537,4.683186899602726,158.0,6000,Portal El Dorado,carrera 87,Calle 26,0,0,1,532,CABECERA,SI,4.68113815,-74.12098887,0.5576006167108488,0.5576006167108488,1.0,1.0
49193,Carrera 106 No 15 A -32,Instituciones - IPS,900959048,110013029630,2950,Unidad de Servicios de Salud 51 Zona Franca,-74.15371189964867,4.67266142998927,158.0,5002,Biblioteca Tintal,av.Cali - Calle 26 sur,Americas,4,2,0,0,SENCILLA,NO,4.63996012,-74.15698977,3.654321585670261,3.654321585670261,1.0,1.0
49385,Carrera 104 No. 20C - 31,Instituciones - IPS,900959048,110013029633,2953,Unidad de Servicios de Salud Boston,-74.14391235967388,4.678329420131115,158.0,6000,Portal El Dorado,carrera 87,Calle 26,0,0,1,532,CABECERA,SI,4.68113815,-74.12098887,2.55960374714445,2.55960374714445,1.0,1.0
49573,Cr 77 i No. 65j - 58 sur primer piso,Instituciones - IPS,900959048,110013029650,2963,Unidad de Servicios de Salud Pablifarmacia,-74.18801656968252,4.597801479829713,158.0,7506,La Despensa,soacha,Soacha,2,1,0,0,SENCILLA,NO,4.59495435,-74.18746863,0.3223590231209034,0.3223590231209034,1.0,1.0
49758,Calle 19 A No. 34 - 94,Instituciones - IPS,900959048,110013029609,2931,Unidad de Servicios de Salud 35 Cundinamarca,-74.0915497701717,4.622794180270115,158.0,7110,Paloquemao,Kr 30 Cl 19,NQS,2,1,0,0,SENCILLA,NO,4.61799507,-74.08858928,0.6264439282230682,0.6264439282230682,1.0,1.0
49905,Carrera 33 No. 1B - 27,Instituciones - IPS,900959048,110013029610,2932,Unidad de Servicios de Salud 36 Asunción Bochica,-74.1082027496885,4.602841629911424,158.0,7113,Santa Isabel,Kr 30 Av 3,NQS,2,1,0,0,SENCILLA,NO,4.600994,-74.10336685,0.5740192051951625,0.5740192051951625,1.0,1.0
49954,Calle 39 sur No. 89 C - 12,Instituciones - IPS,900959048,110013029612,2934,Unidad de Servicios de Salud 50 Mexicana,-74.16868755025683,4.639741679991408,158.0,5001,Patio Bonito,av.Cali - Calle 40 sur,Americas,4,2,0,0,SENCILLA,NO,4.6348279,-74.16271887,0.8579862809575318,0.8579862809575318,1.0,1.0
50103,Calle 42 A sur No. 90 - 00,Instituciones - IPS,900959048,110013029615,2937,Unidad de Servicios de Salud 65 Dindalito,-74.17234084041387,4.639183340419982,158.0,5001,Patio Bonito,av.Cali - Calle 40 sur,Americas,4,2,0,0,SENCILLA,NO,4.6348279,-74.16271887,1.1712320569793537,1.1712320569793537,1.0,1.0
50242,Carrera 78ª No. 53ª - 47,Instituciones - IPS,900959048,110013029621,2941,Unidad de Servicios de Salud 105 Catalina,-74.11160694959365,4.678384620334514,158.0,6001,Modelia,Carrera 84,Calle 26,4,1,0,0,SENCILLA,NO,4.67432269,-74.11675293,0.7274934414262961,0.7274934414262961,1.0,1.0
50477,Calle 65D sur # 79C-90,Instituciones - IPS,900959048,110013029623,2943,Unidad de Servicios de Salud Bosa,-74.18556142999356,4.606821060199901,158.0,7010,Bosa,soacha,Soacha,2,1,0,0,SENCILLA,NO,4.59693732,-74.17918435,1.306687963672283,1.306687963672283,1.0,1.0
50577,Carrera 99 No. 16i - 41,Instituciones - IPS,900959048,110013029625,2945,Unidad de Servicios de Salud Fontibón,-74.14617381001116,4.671713919922217,158.0,6000,Portal El Dorado,carrera 87,Calle 26,0,0,1,532,CABECERA,SI,4.68113815,-74.12098887,2.9813541741910408,2.9813541741910408,1.0,1.0
50726,Calle 18 A No 122 - 25,Instituciones - IPS,900959048,110013029626,2946,Unidad de Servicios de Salud 48 San Pablo,-74.1566521098281,4.688829980262385,158.0,6000,Portal El Dorado,carrera 87,Calle 26,0,0,1,532,CABECERA,SI,4.68113815,-74.12098887,4.043806606061706,4.043806606061706,1.0,1.0
50875,Carrera 97 No. 19-34,Instituciones - IPS,900959048,110013029629,2949,Unidad de Servicios de Salud Centro Día,-74.14158196992676,4.6724410096516085,158.0,6000,Portal El Dorado,carrera 87,Calle 26,0,0,1,532,CABECERA,SI,4.68113815,-74.12098887,2.478666342556022,2.478666342556022,1.0,1.0
51024,"Aeropuerto El Dorado Muelle Internacional, 2° piso, salida 5",Instituciones - IPS,900959048,110013029631,2951,Unidad de Servicios de Salud Terminal Aéreo,-74.15278711999628,4.68531690990414,158.0,6000,Portal El Dorado,carrera 87,Calle 26,0,0,1,532,CABECERA,SI,4.68113815,-74.12098887,3.554500857751915,3.554500857751915,1.0,1.0
