,direccion,clase_de_prestador,nit_ips,codigo_de_habilitacion,id_ips,nombre_ips,longitud_ips,latitud_ips
1,AC 33 # 14 37,Instituciones - IPS,830099212,110010905601,4,CENTRO DE INVESTIGACIONES ONCOLOGICAS CLINICA SAN DIEGO CIOSAD S.A.S,-74.06983839615465,4.621247510792445
2,AC 13 N 65 -21,Instituciones - IPS,800149384,110010918632,9,CLINISANITAS DIAGNOSTICO ZONA IN,-74.11605885371635,4.63426464165194
3,CL 63 N 22-22,Instituciones - IPS,900116722,110011709301,10,MISION SALUD INTERNACIONAL SAS CALLE 63,-74.07138337537415,4.651042894407683
5,KR 13 B # 161-85,Instituciones - IPS,860035992,110010911103,19,FUNDACIÓN CARDIOINFANTIL-INSTITUTO DE CARDIOLOGÍA,-74.03440921504814,4.740787460221625
9,Carrera 19 N 102-31,Instituciones - IPS,830018305,110010919912,38,JAVESALUD ALLIANZ,-74.05221320414184,4.688004719815471
10,CL 47 B SUR NO. 24B-33 L 1108 CC CIUDAD TUNAL,Instituciones - IPS,900407148,110012384551,43,Multiopticas,-74.1303235560491,4.577896764292308
21,CRA 4 D # 192 A -35,Instituciones - IPS,900971006,110013029128,80,UNIDAD DE SERVICIOS DE SALUD BUENA VISTA,-74.02550148835147,4.768695043342347
22,CALLE 55 BIS No. 15 A - 05,Instituciones - IPS,900211561,110011905301,84,UNIDAD DE CUIDADO INTERMEDIO SANTA LUCIA SAS,-74.06744479106268,4.64281439941825
24,CALLE 42C SUR # 78H-08,Instituciones - IPS,900900122,110012894203,93,HEALTH & LIFE IPS SAS SEDE KENNEDY,-74.1613173826954,4.615852496786914
26,CL 24 17 35,Instituciones - IPS,900413988,110012208203,99,IPS AMERICAS SAS,-74.07576769923803,4.614122507791356
34,Carrera 12#98-16,Instituciones - IPS,830027158,110011243704,124,RIESGO DE FRACTURA,-74.04584689313063,4.682075265224231
35,CR 65 No 11- 50 LC 2 - 61,Instituciones - IPS,860043998,110010735738,129,OPTICENTRO INTERNACIONAL PLAZA CENTRAL,-74.1152298955587,4.631964965790582
36,CL 127 A No. 7-19 LOCALES 101 y 102,Instituciones - IPS,830001007,110010403511,130,CENTRO DE DIAGNOSTICO ESPECIALIZADO BELLA SUIZA,-74.02898925223928,4.703202179069675
39,CALLE 25 G No 99 - 42,Instituciones - IPS,800223206,110012123806,149,BIENESTAR IPS SEDE FONTIBON,-74.12988836720972,4.686404234093812
40,CRA 43B No 62 A SUR - 22,Instituciones - IPS,800223206,110012123808,152,BIENESTAR IPS SEDE CIUDAD BOLIVAR,-74.15321955729596,4.572811633099243
41,CRA 77 No 65A - 35,Instituciones - IPS,800223206,110012123809,153,BIENESTAR IPS SEDE BOSA,-74.10446585871787,4.6837587198929
43,CRA 16 No. 59-54,Instituciones - IPS,830090073,110010315506,159,Sede Ambulatoria,-74.06724811301605,4.647156936896981
44,CARRERA 13 No. 32-44 SUR PISO 3 301,Instituciones - IPS,900532504,110012436905,160,UNIDAD RENAL DAVITA SAN CARLOS,-74.10828120135889,4.569346052325916
52,CLL 43 # 25 - 61,Instituciones - IPS,800241339,110010010301,180,INSTITUTO NACIONAL DEL RIÑON LTDA,-74.07680758002778,4.633059050242287
69,DG 40 A BIS # 14 79,Instituciones - IPS,830049044,110010128701,229,CLINICA MEDICO OFTALMOLOGICA DEL NIÑO Y DEL ADULTO S.A,-74.06909274955308,4.629100209683038
71,AV 100 No. 18 A 51,Instituciones - IPS,860006626,110010144301,235,CLINICA BARRAQUER,-74.0512058199075,4.685798220390471
78,KR 15 # 88-20 PISO 2,Instituciones - IPS,800229839,110010184701,255,INSTITUTO AMERICANO DE OFTALMOLOGIA,-74.05335178013691,4.673408050330962
83,CALLE 76 # 13 46,Instituciones - IPS,800065396,110010240401,263,IDIME S.A SEDE LAGO,-74.05785892975129,4.662046010164617
84,AK 45 # 122 68,Instituciones - IPS,800065396,110010240402,264,IDIME S.A SEDE NORTE,-74.05382660983317,4.703321600066291
85,KR 14 # 127 11 CS 101,Instituciones - IPS,800065396,110010240403,265,IDIME LA CAROLINA,-74.04108265017354,4.704414379840505
86,Kr 21 No.22-66/68 SUR CN 104-P2,Instituciones - IPS,800065396,110010240406,266,IDIME S.A SEDE SUR,-74.10503359038418,4.584190979567926
87,CRA 78 No 34 SUR - 32,Instituciones - IPS,830027558,110010231703,268,IMEVI LTDA,-74.1478141597711,4.623694960246132
88,TRV. 60 No. 115 - 27/37,Instituciones - IPS,830027558,110010231705,269,IMEVI LTDA,-74.07001203960075,4.6985560697349324
89,AV 9 # 116 20 LC 108 CS 312,Instituciones - IPS,800112384,110010289401,276,CIRULASER ANDES S.A,-74.03378007993891,4.694807300317706
101,KR 49 N. 102 A 06,Instituciones - IPS,800091030,110010354201,311,CENTRO INTEGRAL DE ATENCION EN SALUD MENTAL LTDA,-74.06001886956314,4.6897675104372665
111,Avenida Calle 6 No. 49 - 21,Instituciones - IPS,800215908,110010485704,344,CAFI PUENTE ARANDA,-74.10705640955443,4.625279430426861
119,KR 16 # 82 95 CS 301 403,Instituciones - IPS,800233471,110010548004,373,SERVIOFTALMOS - COUNTRY,-74.05654479959351,4.66893613978691
121,KR 16 A # 79 33,Instituciones - IPS,830013594,110010557701,377,DEXA DIAB SERVICIOS MEDICOS LTDA,-74.05873681015932,4.666411840259712
124,Kr 15 No. 51 - 35,Instituciones - IPS,860013570,110010559701,385,Centro de Atención en Salud Cafam Calle 51,-74.06811967018281,4.638939689897959
125,AK 68 No.90-88,Instituciones - IPS,860013570,110010559704,388,Centro de Atención en Salud Cafam Floresta,-74.07480438006333,4.685898209813757
126,CRA 78 K 37 A 53 SUR,Instituciones - IPS,860013570,110010559705,389,Centro de Atención en Salud Cafam Kennedy,-74.15429278983724,4.6236398703661985
127,CRA 16 # 86 A 32,Instituciones - IPS,860073087,110010522701,392,LA FONT LTDA CIENCIA ACADEMIA MEDICA RESORT,-74.05476430995428,4.672225819763555
133,CRA 8 # 17 45 SUR,Instituciones - IPS,860015888,110010566801,412,HOSPITAL UNIVERSITARIO CLINICA SAN RAFAEL,-74.09133121994455,4.576650720256573
134,CRA 16 # 82 74 CONS 619 313 314 y 315,Instituciones - IPS,830005028,110010959903,422,SEDE SAN SEBASTIAN,-74.05655118032695,4.668640220074973
137,AC 134 Nº 7B- 83 Oficina 214 / 216-2 / 306 / 312 / 318 / 411/ 419 / 618-1 / 621-1 / 621-3 / 706 / 806 / 814 / 816 / 817,Instituciones - IPS,800231602,110010614601,425,SOCIEDAD DE CIRUGIA OCULAR S.A.,-74.03207532995624,4.711859999597484
138,KR 7 B # 127 A 14,Instituciones - IPS,830073010,110010625801,430,MEDIPORT,-74.02996728042847,4.703865409943057
139,DIAG 115 A # 70 C 75,Instituciones - IPS,860006656,110010644701,433,FUNDACION ABOOD SHAIO,-74.0728701302885,4.698065880430355
141,KR 7 C # 125 11 PISO 2 CS 401 - 405,Instituciones - IPS,860450371,110010647901,436,CENTRO DE DIAGNOSTICO Y DE CIRUGÍA AMBULATORIA USANAR LTDA SIGLA CDQ - USANAR,-74.03205563978354,4.701356990104172
158,CL 45 F # 16 A 11,Instituciones - IPS,860010783,110010752101,491,CLINICA NUEVA,-74.07096126959856,4.634260959855697
160,CRA 24 # 62 50,Instituciones - IPS,860043998,110010735707,496,OPTICENTRO INTERNACIONAL CALLE 63,-74.07261331991509,4.6506040698756435
161,CALLE 19 SUR # 21 32 PI 2,Instituciones - IPS,860043998,110010735715,499,OPTICENTRO INTERNACIONAL OPTICA RESTREPO,-74.10355215978451,4.5858549399415685
163,AC 26 No 66 A 48,Instituciones - IPS,860066942,110010733503,503,UNIDAD DE SERVICIOS CALLE 26,-74.10170140033051,4.652548090263403
164,"KR. 19A Nº 85-11 OFICINA 401, 402, 406, 407, 408, 409 PISO 5 Y 6",Instituciones - IPS,800061267,110010757001,509,CENTRO OFTALMOLOGICO COLOMBIANO,-74.0578608296881,4.671655940086139
165,CALLE 74 # 76 65,Instituciones - IPS,800085486,110010802401,512,CLINICA PARTENON,-74.09743571966116,4.692286979731964
167,KR 19 C # 91 17,Instituciones - IPS,800117564,110010793901,519,CLINICA DE LA MUJER,-74.05725003009213,4.677681020205781
169,CRA 7 # 54 27,Instituciones - IPS,811007832,110010778204,530,IPS SURA CHAPINERO BOGOTA,-74.06277503021222,4.640387520123272
172,CALLE 18 No 106-48,Instituciones - IPS,860028947,110010773701,547,CENTRO ASISTENCIAL MADRE BERNARDA,-74.14794298986095,4.6783924597765765
178,CALLE 53 SUR # 79 D 71,Instituciones - IPS,860007336,110010817103,567,CLINICA COLSUBSIDIO CIUDAD ROMA,-74.17268153996008,4.615096770157676
179,AK7 # 123 65 PI 3 Y 4,Instituciones - IPS,860007336,110010817104,568,CENTRO MEDICO COLSUBSIDIO USAQUEN,-74.02953683020219,4.6991496304380895
180,CRA 111 A # 82 36,Instituciones - IPS,860007336,110010817106,570,CENTRO MEDICO CIUDADELA COLSUBSIDIO,-74.11494252988919,4.720804729843275
181,AK 1 # 76 A 04 SUR,Instituciones - IPS,860007336,110010817108,571,CENTRO MEDICO COLSUBSIDIO SANTA LIBRADA,-74.11535804023396,4.51244242968538
182,AC 13 # 62 96,Instituciones - IPS,860007336,110010817109,572,CENTRO MEDICO COLSUBSIDIO PUENTE ARANDA,-74.11407407011355,4.634544910274792
183,KR 80 # 170 85,Instituciones - IPS,800118223,110010868401,578,ATARDECER DE LOS AÑOS LTDA,-74.07019782018467,4.764073170272862
184,Calle 6 A # 70 - 06,Instituciones - IPS,800201496,110010843701,582,CLINICA DE ORTOPEDIA Y ACCIDENTES LABORALES,-74.13091696965107,4.630525799943978
191,AK 45 104-76,Instituciones - IPS,830078325,110010862601,598,UNIDAD MEDICA CECIMIN ORGANIZACIÓN SANITAS INTERNACIONAL,-74.05569395039068,4.692200680430742
194,KR 111 # 159 A 61,Instituciones - IPS,830113849,110010910401,604,CLINICA JUAN N CORPAS LTDA,-74.09317782019878,4.761183500429389
195,CALLE 74A # 20C -12,Instituciones - IPS,830118794,110010891001,607,CLINICA SANARTE,-74.06342082996827,4.663863830192282
196,CALLE 34 # 14 52,Instituciones - IPS,860013779,110010899501,610,ASOCIACION PROBIENESTAR DE LA FAMILIA COLOMBIANA PROFAMILIA,-74.06945427025097,4.622747590286238
197,CL 163 A # 13 B 60,Instituciones - IPS,860035992,110010911101,614,FUNDACION CARDIO INFANTIL INSTITUTO DE CARDIOLOGIA,-74.03449838002663,4.741346699750187
198,CL 120 A # 7-59,Instituciones - IPS,860049972,110010893002,616,ORIENTAME - SEDE USAQUEN,-74.03223009979824,4.697540279965183
199,CRA 17 # 33 50,Instituciones - IPS,860049972,110010893004,617,ORIENTAME SEDE TEUSAQUILLO,-74.07215874992345,4.6223595402725755
203,CLL 27 SUR No 21 A 19,Instituciones - IPS,800003765,110010952301,623,VIRREY SOLIS I.P.S S.A. OLAYA,-74.10887776984411,4.582538330145229
204,KR 9 A N° 22 33 SUR,Instituciones - IPS,800003765,110010952305,624,VIRREY SOLIS IPS S.A-20 DE JULIO,-74.09459633998247,4.575125450402765
205,KR 78 F # 41 B 06 SUR,Instituciones - IPS,800003765,110010952306,625,VIRREY SOLIS IPS S.A-KENNEDY,-74.15755239960922,4.61596682972973
206,AC 145 No. 88-76,Instituciones - IPS,800149384,110010918603,630,CLINISANITAS SUBA,-74.08353828993906,4.737664289640285
207,TRV 59 A 114 - 18 PISO 3,Instituciones - IPS,800149384,110010918614,637,LABORATORIO CLINICO SANITAS SALUD OCUPACIONAL,-74.06840229005266,4.696659679755972
208,CRA 21 NO. 22-68 SUR,Instituciones - IPS,800149453,110010917802,638,CENTRO POLICLINICO DEL OLAYA,-74.10503359038418,4.584190979567926
209,TV 14 48 36 SUR,Instituciones - IPS,800149453,110010917804,639,DONTOLUCIA,-74.12591736000469,4.568677029582435
212,Carrera 21 # 52 A 12,Instituciones - IPS,830079896,110010912401,657,UNIDAD MEDICA BETA SALUD LTDA GALERIAS,-74.07186986969435,4.641058749667348
215,CRA 11 # 68 36,Instituciones - IPS,830117759,110010917701,663,CLINICA DEL SENO IPS LTDA,-74.0607904999343,4.653713979719108
216,CRA 13 # 48 63,Instituciones - IPS,860002541,110010936106,667,UNIMARLY,-74.06618467031473,4.635974730060717
217,AV DE LAS AMERICAS # 71 C 29,Instituciones - IPS,860090566,110010966601,675,CLINICA DEL OCCIDENTE S.A.,-74.13567718995233,4.62937468005086
218,CRA 8 # 0 29 SUR,Instituciones - IPS,899999032,110010922401,676,EMPRESA SOCIAL DEL ESTADO HOSPITAL UNIVERSITARIO DE LA SAMARITANA,-74.08371026970525,4.587218050013217
222,CRA 13 # 51 - 87,Instituciones - IPS,860066191,110011005803,700,CENTRO MEDICO FEDERMAN CHAPINERO,-74.0655482301056,4.6390645200392
223,CRA 73 # 6 - 08 SUR,Instituciones - IPS,860066191,110011005805,701,CENTRO MEDICO FEDERMAN KENNEDY,-74.14262040981879,4.621252370100685
234,"CALLE 75 # 13-37 Pisos 1, 2 y3",Instituciones - IPS,860007336,110010817112,730,CAJA COLOMBIANA DE SUBSIDIO FAMILIAR COLSUBSIDIO CLINICA COLSUBSIDIO EL LAGO,-74.05876090028029,4.661279939814212
240,CL 51 No 72 17,Instituciones - IPS,830128856,110011275109,743,IPS NORMANDIA,-74.10904718042862,4.669608770156032
242,KR 7 32 - 12 LOCAL 304,Instituciones - IPS,800149384,110010918623,748,ODONTOSANITAS SAN MARTIN,-74.06770965034106,4.618808579763447
245,DG 16 N° 104-51 LOC 11,Instituciones - IPS,800003765,110010952309,764,VIRREY SOLIS I.P.S S.A. FONTIBON,-74.15336055955788,4.670883649609113
250,AK 14 42-66,Instituciones - IPS,800149384,110010918628,785,LABORATORIO TEUSAQUILLO,-74.0677070200739,4.630604669767957
257,AC 80 # 100 52 LC N2 141,Instituciones - IPS,860043998,110010735721,806,OPTICENTRO INTERNACIONAL PORTAL 80,-74.11221639003858,4.710292720024435
259,KR 16 # 82 74 CS 7181,Instituciones - IPS,800233471,110010548016,810,SAN SEBASTIAN DEL COUNTRY SERVIOFTALMOS,-74.05651110019393,4.668608119637409
262,KR 86 # 6 37 LC 1-36,Instituciones - IPS,860043998,110010735724,818,OPTICENTRO INTERNACIONAL CENTRO COMERCIAL TINTAL PLAZA,-74.1559435196303,4.641223920313908
264,CARRERA 47 N°94-06,Instituciones - IPS,804013017,110011502601,825,CENTRO NACIONAL DE ONCOLOGIA S.A.,-74.05985354002497,4.682293540035158
266,Carrera 67 N° 4 G - 31 Interior 2,Instituciones - IPS,900033752,110011507001,828,OPTICA UNIVER AMERICAS,-74.12187140006732,4.627755230009776
267,AK 45 # 137 48,Instituciones - IPS,800215908,110010485717,832,CAFI CALLE 138,-74.05054292970314,4.723114389822485
268,CL 106 # 19 19,Instituciones - IPS,800215908,110010485718,833,CEMES 106,-74.05123203005255,4.692604020412252
271,TV 76 # 83 79,Instituciones - IPS,860066191,110011005807,842,CENTRO MEDICO MINUTO DE DIOS,-74.09258275010345,4.7045697697499005
280,AV BOYACA # 6D 08,Instituciones - IPS,800003765,110010952311,858,VIRREY SOLIS I.P.S S.A. OCCIDENTE,-74.13721283028613,4.632228849852349
290,KR 13 A No 102 86,Instituciones - IPS,830146310,110011594101,884,CLINICA CORPOLASER,-74.04480273007194,4.686431449788632
299,CL 94 # 23 43 PISO 3 CONSULTORIOS 305-306 - 307,Instituciones - IPS,830027558,110010231708,910,IMEVI LTDA,-74.05755959043736,4.681134420111582
304,TV 114 # 142 A 90,Instituciones - IPS,860013570,110010559711,922,Centro de Atención en Salud Cafam Suba,-74.10299942998344,4.747742329999327
305,AK 45 100 90,Instituciones - IPS,830128856,110011275123,927,IPS CHICO NAVARRA,-74.05633013996984,4.688380420435233
310,CARRERA 15 No. 1-59 SUR HOSPITAL SANTA CLARA BLOQUE C- UNIDAD RENAL.,Instituciones - IPS,805011262,110010683409,945,RTS AGENCIA SANTA CLARA,-74.09171706971527,4.591137119570649
311,CL 27 SUR # 20 14,Instituciones - IPS,830128856,110011275125,947,IPS OLAYA,-74.10803835978815,4.5818681404292
318,CL 12 # 7 65 SOTANO,Instituciones - IPS,860007336,110010817120,956,CONSULTORIO DE EMPRESA ALTAS CORTES,-74.07551389013598,4.598993020169087
319,CL 13 # 68 A 76,Instituciones - IPS,860007336,110010817123,959,CONSULTORIO MEDICO CASA LUKER,-74.12010693008456,4.638882410228659
320,AK 96 # 24 C 94 IN 2,Instituciones - IPS,860007336,110010817124,960,CONSULTORIO DE EMPRESA COCACOLA,-74.12673634955766,4.679094899749136
321,AC 24 # 53 28 TO B SOTANO 2,Instituciones - IPS,860007336,110010817128,962,CONSULTORIO DE EMPRESA TRIBUNALES DE CUNDINAMARCA,-74.09889558979569,4.64064685972074
322,TV 93 # 65 A 82 PI 2,Instituciones - IPS,860007336,110010817129,963,CONSULTORIO DE MEPRESA PROTELA,-74.11643993972112,4.693413009557896
326,CL 185 # 45 30 LC 1-12,Instituciones - IPS,860043998,110010735727,969,OPTICENTRO INTERNACIONAL CENTRO COMERCIAL SANTAFE,-74.04460447997356,4.763186929789419
329,TV 3 No49-00,Instituciones - IPS,830040256,110011693801,972,HOSPITAL MILITAR CENTRAL,-74.06065923990161,4.635200909632
331,CALLE 16 # 6 -66 PISO 2,Instituciones - IPS,800149384,110010918635,982,CLINISANITAS CENTRO MEDICO EMPRESARIAL,-74.07227174001989,4.602637450372857
333,TV 78 H # 42 C 10 SUR PI 2,Instituciones - IPS,860007336,110010817132,986,CENTRO MEDICO COLSUBSIDIO PRIMERO DE MAYO,-74.16131018000345,4.6151265602044695
337,KR 7 No. 78-96,Instituciones - IPS,860066942,110010733521,1011,CAJA DE COMPENSACION FAMILIAR / CONSULTORIO EMPRESARIAL CORPORACION CLUB EL NOGAL,-74.05070076998679,4.660107089947751
338,CL 64 G # 90 A 40,Instituciones - IPS,800216958,110011115803,1012,ASISTIR SALUD SAS ENGATIVA,-74.11503975006082,4.6886688300082415
350,DG 16 # 104 51,Instituciones - IPS,860066942,110010733522,1034,UNIDAD DE SERVICIOS FONTIBON,-74.15336055955788,4.670883649609113
353,KR 85 C# 53 21 SUR,Instituciones - IPS,860007336,110010817133,1048,CENTRO MEDICO COLSUBSIDIO CHICALA,-74.17920162997153,4.62353886030335
356,AC 26 SUR 68 I - 12 PISO 2,Instituciones - IPS,800149384,110010918639,1055,LABORATORIO UAP KENNEDY,-74.13319318020677,4.612184159818336
361,KR 69 # 16 79 PI 2,Instituciones - IPS,860066942,110010733524,1069,CAJA DE COMPENSACION FAMILIAR COMPENSAR / CONSULTORIO EMPRESARIAL No. 1 PROENFAR S.A.,-74.12177994977475,4.643877070150313
362,CL 10 # 34 47 PISO 2,Instituciones - IPS,860066942,110010733525,1070,CAJA DE COMPENSACION FAMILIAR COMPENSAR / CONSULTORIO EMPRESARIAL No. 2 PROENFAR S.A.,-74.09925850018732,4.61353363978899
378,AV 15 # 118 -41 CS 403-404-405-406-103,Instituciones - IPS,900173342,110011791401,1123,CORPOESCULTURA IPS E.U,-74.04329289025141,4.697972939634114
379,CRA 19B Nº 84-48,Instituciones - IPS,800127648,110010845602,1124,HORUS GRUPO OFTALMOLOGICO S.A.,-74.05866466017063,4.670907349939106
381,AC 80 # 69 K 27,Instituciones - IPS,860066942,110010733527,1133,CAJA DE COMPENSACION FAMILIAR COMPENSAR SEDE CL 80,-74.08361460990727,4.688965700129948
389,CL 63 # 19 18 /20,Instituciones - IPS,805011262,110010683410,1163,RTS AGENCIA CSR BOGOTA,-74.06916537025897,4.65064800955451
391,Calle 116 No. 15 B 08,Instituciones - IPS,830001007,110010403503,1172,CENTRO MEDICO COLMEDICA SEDE SANTA BARBARA,-74.04420410983458,4.6971429502888595
397,CARRERA 65 No. 5 A 94,Instituciones - IPS,811007832,110010778208,1187,IPS SURA LAS AMERICAS BOGOTA,-74.11908518987366,4.6279471400052445
398,Cl. 100 No. 19 A - 35,Instituciones - IPS,811007832,110010778209,1188,SALUD SURA CALLE 100 BOGOTA,-74.05336090971514,4.685674309981287
403,CL 24 # 29 45,Instituciones - IPS,900210981,110011864201,1197,HOSPITAL UNIVERSITARIO MAYOR-MEDERI,-74.08253638003805,4.622837539673342
404,CL 66 A # 52 25,Instituciones - IPS,900210981,110011864202,1198,HOSPITAL UNIVERSITARIO BARRIOS UNIDOS-MEDERI,-74.08011196003687,4.66368483004687
416,CALLE 127 No. 17 A 81,Instituciones - IPS,830018305,110010919907,1218,JAVESALUD SANTA BEATRIZ,-74.04665428992485,4.704453220158783
419,Kr. 45 Nº 146 - 48 piso 2,Instituciones - IPS,860013570,110010559714,1229,Centro de Atención en Salud Cafam Granada Hills,-74.0496990900545,4.7293496798840655
421,CALLE 147 No. 101- 56 Local 256,Instituciones - IPS,900219120,110011908601,1233,VIVA 1A IPS SUBA,-74.09258665957155,4.744752449571612
426,AV AMERICAS # 69 C 84 94,Instituciones - IPS,800065396,110010240416,1245,INSTITUTO DE DIAGNOSTICO MEDICO SA SEDE OCCIDENTE,-74.13009823971123,4.630034260367399
428,KR 78 # 3 A 40,Instituciones - IPS,800227072,110010822203,1251,EUSALUD CLINICA DE TRAUMATOLOGIA Y ORTOPEDIA,-74.14490833979569,4.627646470065485
429,KR 58 # 128 04,Instituciones - IPS,900237597,110011926701,1253,CLINICA DE CIRUGIA PLASTICA DR YESID MARTINEZ LTDA,-74.0699807503811,4.713868119898977
432,Calle 173 A N° 65-85,Instituciones - IPS,830100595,110010875401,1259,CENTRO DE INVESTIGACIONES DEL SISTEMA NERVIOSO LIMITADA - GRUPO CISNE LTDA,-74.06317576955877,4.759255720111459
439,Kr 16 A # 137 97,Instituciones - IPS,830001007,110010403505,1275,CENTRO MEDICO COLMEDICA SEDE CEDRITOS,-74.04318878988302,4.7219326696792185
441,CL 38 SUR # 18 30,Instituciones - IPS,860007336,110010817136,1283,CENTRO MEDICO COLSUBSIDIO QUIROGA,-74.11846726034928,4.5765534402456876
450,CALLE 91 No 19 C - 62 CS 405 - 406 y 407,Instituciones - IPS,900200848,110011966801,1307,CFZ MEDICINA ESTETICA LTDA,-74.05763010998379,4.6777462203242886
465,KR 24 B 20 89 SUR,Instituciones - IPS,830128856,110011275134,1355,CENTRO MEDICO FAMILIAR AV 1 DE MAYO,-74.10539550005258,4.585117249670174
466,KR 67 A 4G 26,Instituciones - IPS,830128856,110011275136,1357,CENTRO MÉDICO FAMILIAR AMÉRICAS,-74.12187140006732,4.627755230009776
467,AV CALLE 80 No.116 B 35,Instituciones - IPS,830128856,110011275138,1359,CENTRO MEDICO FAMILIAR CALLE 80,-74.12441747980573,4.724608629976896
468,AK 20 No 82-49,Instituciones - IPS,830128856,110011275140,1360,CENTRO MÉDICO FAMILIAR LOS HÉROES,-74.06056690027694,4.670209279935713
469,AC 116 # 20 - 05,Instituciones - IPS,830128856,110011275142,1362,CENTRO MÉDICO FAMILIAR PEPE SIERRA,-74.05190401030927,4.6986153696929005
470,KR 73 BIS Nº 55-74,Instituciones - IPS,900266533,110012004401,1363,INSTITUTO COLOMBIANO DE GERONTOLOGIA Y GERIATRIA LTDA SIGLA ICGG LTDA,-74.10638757968943,4.674798789823114
471,"CL 23 # 66 - 46 INT 4 CONSULTORIOS 518, 519, 603 AL 614 Y 617",Instituciones - IPS,830103525,110010748102,1365,OFTALMOSANITAS CUC,-74.10640329032543,4.64804106970914
472,AV 127 No. 20-78 LC 206 y 207,Instituciones - IPS,800149384,110010918643,1370,CLINISANITAS CENTRO DE ATENCIÓN INTEGRAL PARA LA MUJER,-74.05136808978381,4.706529620258821
481,KR 92 # 145-61,Instituciones - IPS,830113849,110010910403,1407,CENTRO MEDICO CORPAS SUBA,-74.08570300968653,4.738922719707077
484,Cl 139 # 19 - 16,Instituciones - IPS,900266208,110012048001,1413,LEONARDO PINZON BARRETO MEDICOS ASOCIADOS SAS,-74.04675182989672,4.722960430217326
486,"CL 93 B #16 66 CS 102,103,106,107,108",Instituciones - IPS,900294949,110012050601,1417,CENTRO OFTALMOLOGICO MICROCIRUGIA DEL OJO SAS,-74.05217519013397,4.679319329927025
492,KR 7 # 43 82 ED 91,Instituciones - IPS,830018305,110010919909,1424,JAVESALUD CENTRO JAVERIANO DE FORMACION DEPORTIVA,-74.06344857982573,4.630614339905266
500,KR 1 # 20 19,Instituciones - IPS,860013874,110010825802,1448,CASA ESPINOSA,-74.06623545028111,4.603186989913031
501,Autopista Norte Nº 106-30 Con 601-602,Instituciones - IPS,900071884,110012075401,1450,Cirugia Estetica S.A.S.,-74.05557476012216,4.693945930439348
504,CALLE 65G SUR No 79B - 35/39 PISO 1 CONS 9 Y 10,Instituciones - IPS,900033752,110011507006,1457,OPTICA UNIVER BOSA,-74.18669918043689,4.605960990308123
505,CL 110 N. 9 - 80,Instituciones - IPS,860066942,110010733534,1460,CAJA DE COMPENSACION FAMILIAR COMPENSAR UNIDAD DE SERVICIOS DE SALUD EAAAB USAQUEN,-74.03814494000554,4.691778999890476
506,KR 8 # 49 25 OF 101,Instituciones - IPS,900280516,110012083001,1463,VICTORIA UNIDAD DE CIRUGIA PLASTICA AVANZADA S.A.S,-74.06429746980291,4.636274020266859
511,AK 45 No. 93-69/63/53/79,Instituciones - IPS,800003765,110010952318,1477,VIRREY SOLIS IPS.S.A. CASTELLANA,-74.05871046975857,4.681369160123142
517,CALLE 38 A SUR N 34D-50 LOCAL 1041,Instituciones - IPS,860043998,110010735732,1493,OPTICENTRO CENTRO MAYOR,-74.12304345986627,4.592939999671106
521,AK 68 No. 39 - 11 SUR PI 1,Instituciones - IPS,860066942,110010733538,1508,SEDE ALQUERIA,-74.13422718960783,4.602283229935295
530,Carrera 59 A No. 136-95 Pisos 2 y 3,Instituciones - IPS,800223206,110012123802,1526,BIENESTAR IPS S.A.S. SEDE COLINAS,-74.0678991301873,4.729220360030885
533,AK 36 No. 23 - 33 CONSULTORIO No. 13,Instituciones - IPS,830027558,110010231711,1529,ACUEDUCTO,-74.0913745699452,4.626509979715102
537,"AK 45 NO. 106 30 CONS 610, 611, 612, 617",Instituciones - IPS,900353107,110012139001,1553,UNIDAD MÉDICA ONCOLÓGICA S.A.S.,-74.05543662977415,4.69382030965722
543,CALLE 151 N 54 - 15 ET II LC 21,Instituciones - IPS,830001007,110010403506,1560,CENTRO MEDICO COLMEDICA SEDE COLINA CAMPESTRE,-74.0559307597743,4.734165430169529
548,Carrera 16 Nº 52-35,Instituciones - IPS,860013570,110010559719,1570,"Laboratorio Clínico CAFAM, Central de Procesamiento",-74.0687451302842,4.64017122986806
550,Cll 136 N° 52A 46,Instituciones - IPS,900359092,110012151501,1574,Instituto Nacional de Demencias Emanuel SAS,-74.05671662035788,4.723509189861672
561,CL 76 Nro 16a-24/28,Instituciones - IPS,830007355,110010994109,1616,FRESENIUS MEDICAL CARE SEDE FME PREVER CALLE 76 BOGOTA,-74.06024103011941,4.663802330122448
562,Carrera 47 # 93 -42,Instituciones - IPS,900123436,110012183201,1619,SIES SALUD BOGOTÁ,-74.06003587017989,4.681212559949497
564,Cra 49C No. 93-22,Instituciones - IPS,900219120,110011908602,1626,VIVA 1A DIAGNOSTICO,-74.0632984399007,4.681471620363032
570,CALLE 42 #13 A -11,Instituciones - IPS,900348937,110012198701,1639,ESENCIAL IPS,-74.06760119044858,4.629778999826971
575,KR 49B No. 102A 41,Instituciones - IPS,830041883,110010965201,1648,ESPECIALISTAS EN SALUD MENTAL IPS,-74.06090715964868,4.690448109611239
576,Calle 124 Numero 7 38/48 PI 3 Y 4,Instituciones - IPS,900218008,110012206501,1650,Complejo Internacional de Cirugia Plastica S A,-74.04972208962072,4.706182609925853
583,CARRERA 50 N° 96 - 47,Instituciones - IPS,900033752,110011507013,1669,OFTALMOHELP APOYO DIAGNOSTICO OFTALMOLOGICO SEDE 2,-74.06160125013949,4.685726189784901
588,KR 49 # 95 - 34,Instituciones - IPS,900143900,110012228701,1679,INTERVENIR SALUD OCUPACIONAL S.A.S.,-74.06110168982345,4.684733540440072
598,KR 13 No. 27 - 00 Piso 4 Sur,Instituciones - IPS,860066942,110010733543,1707,CONSULTORIO EMPRESARIAL SUPERINTENDENCIA DE INDUSTRIA Y COMERCIO,-74.07038536955137,4.615042609933236
599,avda el dorado No 113-90,Instituciones - IPS,900236791,110012247001,1708,aerosanidad sas,-74.14249353985291,4.699769230288294
622,Cra. 59 No. 26 21 CAN,Instituciones - IPS,830041314,110012311801,1791,HOSPITAL CENTRAL POLICIA NACIONAL,-74.09768798006766,4.647409079773638
623,CALLE 44 # 50-51 CAN,Instituciones - IPS,830041314,110012311802,1792,CONSULTA EXTERNA- HOSPITAL CENTRAL POLICIA NACIONAL,-74.0913354195685,4.6425282998596575
625,KR 19 A # 82 14,Instituciones - IPS,900267940,110012315901,1797,ILANS INSTITUTO LATINOAMERICANO DE NEUROLOGÍA Y SISTEMA NERVIOSO,-74.05892258984491,4.669085719703312
628,"Carrera 16 A No 82 . 47 Piso 1 Consultorio 2 y Piso 2 Consultorio 1, Consultorio 3 y Consultorio 5",Instituciones - IPS,830005028,110010959908,1818,CENTRO MATERNO FETAL Y NEONATAL CLINICA DEL COUNTRY,-74.05756311991811,4.6686070103176025
635,Av. Cra. 68 No. 90-88 Cafam Floresta Mundo Comercial Local 10-13,Instituciones - IPS,860013570,110010559725,1838,Óptica Cafam Floresta,-74.07599232027988,4.686080089876407
638,Calle 19 No 10 - 41,Instituciones - IPS,900407148,110012384503,1846,LAFAM OPTICAS,-74.07442504038346,4.607011109818033
639,Calle 19 No 8 - 69,Instituciones - IPS,900407148,110012384505,1848,LAFAM OPTICAS,-74.07301028993072,4.605955379642743
640,Ak 19 N° 100 - 52,Instituciones - IPS,900407148,110012384507,1850,LAFAM OPTICAS,-74.05158650975524,4.686875500227847
641,Calle 26 No 62 - 49 Bahia Lc 205,Instituciones - IPS,900407148,110012384514,1857,LAFAM OPTICAS,-74.10042883971249,4.6482154698898945
642,Cra 12 No 82 - 02 Lc 105,Instituciones - IPS,900407148,110012384515,1858,LAFAM OPTICAS,-74.05314989994648,4.666755639962702
643,Cra 71D N° 6 - 94 Sur Local 1915,Instituciones - IPS,900407148,110012384516,1859,LAFAM OPTICAS,-74.13528837035128,4.618916270168504
644,Ac 80 No 69 Q - 50 IN 1,Instituciones - IPS,900407148,110012384517,1860,LAFAM OPTICAS,-74.08279168034349,4.69055979017951
654,CARRERA 14 # 76-25 CONSULTORIO 602,Instituciones - IPS,800210375,110010784305,1895,PROCARDIO NOGAL,-74.05856576014942,4.6628784397532215
655,AK 45 # 103 13 PI 2-3-4-5-6,Instituciones - IPS,900363673,110012400402,1896,UPREC UNIDAD DE PREVENCION CLINICA BOGOTA,-74.0573257302228,4.689750969626782
657,Calle 82 No 18 - 27 y 31,Instituciones - IPS,900301238,110012034203,1905,Centro Especializado en el Cuidado de Heridas y Ostomias,-74.05822171976865,4.668435850039709
663,CRA 45 A No. 103B-16,Instituciones - IPS,900532504,110012436902,1933,DAVITA BOGOTA SANTA MARGARITA,-74.05737980970123,4.690991369961142
664,AK 45 No. 103 29/35,Instituciones - IPS,900532504,110012436904,1935,DAVITA BOGOTA AUTOPISTA NORTE,-74.05727861987435,4.690032409561216
666,KR 18 # 93 25 OFICINA 103 Y 307,Instituciones - IPS,900033752,110011507016,1942,OFTALMOHELP APOYO DIAGNOSTICO OFTALMOLOGICO SEDE 3,-74.05412884980714,4.678469580148615
676,CALLE 40 A No 13-09 Piso 22 y Piso 17 Oficina 1702,Instituciones - IPS,860015536,110010945608,1958,CONSULTORES EN PSICOLOGIA HUSI,-74.06703130013067,4.6284055499642776
679,CL 26 SUR # 93 D 12,Instituciones - IPS,860007336,110010817144,1966,CENTRO MEDICO COLSUBSIDIO IPANEMA,-74.1679836304002,4.648740529836146
680,AK 72 # 63 F 49,Instituciones - IPS,860007336,110010817145,1967,PUNTO DE ATENCION EN SALUD AV BOYACA,-74.10313087956067,4.676570480122453
686,CARR 99 No 16 J-02,Instituciones - IPS,900116722,110011709305,1986,MISIÓN SALUD INTERNACIONAL SAS - FONTIBÓN,-74.14036746023905,4.677177409676765
693,CR 89 A NO. 79 51 P 4,Instituciones - IPS,800251440,110012482601,2000,UNIDAD DE ATENCION PRIMARIA CALLE 80,-74.10315295026888,4.7047771400743805
694,CR 70 C NO. 115 A 15,Instituciones - IPS,800251440,110012482606,2003,UNIDAD DE ATENCION PRIMARIA MORATO,-74.07204376017717,4.698928079636221
701,CL 48 # 72 B 11/17,Instituciones - IPS,900589178,110012495801,2026,REMY IPS SAS,-74.11177233033577,4.668278280013403
720,AC 134 7B 83 LC 6,Instituciones - IPS,800149384,110010918647,2077,CLINISANITAS DIAGNOSTICO EL BOSQUE,-74.03207532995624,4.711859999597484
721,CR 21 NO. 166 34 P 2,Instituciones - IPS,800149384,110010918648,2078,LABORATORIO TOBERIN,-74.04415845026533,4.746944489873148
723,AK 45 N°103 59,Instituciones - IPS,900576488,110012522701,2083,CLINICA SANTA MARGARITA S.A.S.,-74.0571999400319,4.690500680237241
726,Calle 13 Sur N° 19 - 25,Instituciones - IPS,900259421,110012527501,2089,Emmanuel Instituto de Rehabilitacion y Habilitacion Infantil s.a.s,-74.09921333019989,4.588284909570571
727,CARRERA 18 # 84-06 PISO 7,Instituciones - IPS,830001007,110010403508,2090,CENTRO ODONTOLOGICO COLMEDICA CALLE 84,-74.05746651958403,4.669711070060597
729,"CALLE 45 F No. 16A-11 PISO 3, ALA OCCIDENTE, UNIDAD RENAL",Instituciones - IPS,805011262,110010683413,2105,RTS AGENCIA LA SOLEDAD,-74.07096126959856,4.634260959855697
733,Calle 119 No. 7-74 Segundo Piso Consultorio 5 y 6,Instituciones - IPS,860037950,110010561809,2127,Centro de Telesalud,-74.03300290965737,4.6964238696281315
735,CALLE 54 F SUR # 93 C 18 LC 203,Instituciones - IPS,860043998,110010735737,2134,OPTICENTRO INTERNACIONAL PORVENIR,-74.18861664968222,4.634831330031601
736,CALLE 82 No 19A-17 PISO 1,Instituciones - IPS,805002036,110012575401,2138,UNIDAD DE SALUD OCUPACIONAL NORTE,-74.05927360025397,4.668882779646944
740,AC 134 NO. 7 - 83 TO 3 P 5 CONJ 351,Instituciones - IPS,900126068,110011822102,2166,UNIDAD QUIRURGICA DEPIEL,-74.02988025972857,4.711481560440283
755,"Av. Carrera 68 No.31-41 sur. Consultorio No.6, Primer Piso.",Instituciones - IPS,860013874,110010825804,2204,SEDE ALQUERIA,-74.13063872008509,4.60687358960855
761,TV 74 F # 40 F 25 SUR,Instituciones - IPS,900033752,110011507018,2214,OPTICA UNIVER KENNEDY 2,-74.15470480034567,4.61702539956177
764,Calle 80 N° 80 A - 19,Instituciones - IPS,900219120,110011908605,2218,VIVA 1A IPS CALLE 80,-74.0971907796259,4.699493370180437
775,TV 44 No. 52 G 16 SUR,Instituciones - IPS,830128856,110011275149,2231,IPS LOS ÁNGELES,-74.14107152023287,4.58870095965178
777,AC 13 NO. 65 21 LC 29,Instituciones - IPS,800149384,110010918649,2237,ODONTOSANITAS ZONA INDUSTRIAL,-74.1160588501231,4.63426463986116
804,CR 15 NO. 91 - 50,Instituciones - IPS,900407148,110012384526,2336,Multiopticas,-74.05237032038335,4.675492330278387
805,AK 72 NO. 80 - 94 LC 1-059 CC TITAN PLAZA,Instituciones - IPS,900407148,110012384534,2344,LAFAM OPTICAS,-74.08626332037026,4.694822319891567
806,Av CL 80 NO. 100 - 52 LC N2 123 CC PORTAL DE LA 80,Instituciones - IPS,900407148,110012384535,2345,LAFAM OPTICAS,-74.11221639003858,4.710292720024435
807,AV 68 NO. 75A - 50 LC 163 CC METROPOLIS,Instituciones - IPS,900407148,110012384536,2346,LAFAM OPTICAS,-74.08289723957589,4.680557600002753
808,CL 47 B SUR NO. 24B-33 L 1108 CC CIUDAD TUNAL,Instituciones - IPS,900407148,110012384537,2347,LAFAM OPTICAS,-74.12973911032864,4.578796000010357
809,CL 26 NO. 62 47 CC GRAN ESTACION LC 1-72,Instituciones - IPS,900407148,110012384538,2348,LAFAM OPTICAS,-74.10042092016495,4.648202630416555
810,AC 19 NO. 28 80 L-A-118 CC CALIMA,Instituciones - IPS,900407148,110012384541,2351,Multiopticas,-74.0865707301487,4.617069089720414
811,CR 15 NO. 123-30 LC 1-092 CC UNICENTRO,Instituciones - IPS,900407148,110012384542,2352,LAFAM OPTICAS,-74.04115094998289,4.702134470042189
812,CR 71 D NO. 6 - 94 SUR LC 1216 CC PLAZA DE LAS AMERICAS,Instituciones - IPS,900407148,110012384545,2355,Grand Vision By Lafam,-74.13528837035128,4.618916270168504
813,"Calle 54 F Sur N 93C - 18 Local L, 1-41 CENT COMERCIAL MICENTRO",Instituciones - IPS,900407148,110012384548,2357,LAFAM OPTICAS,-74.18866010029419,4.635024470146512
814,CALLE 138 50-50,Instituciones - IPS,900407148,110012384549,2358,LAFAM OPTICAS,-74.0552029096968,4.725035359592927
816,CRA 7 B BIS 132-38 LC 102,Instituciones - IPS,900618930,110012576403,2370,FURINKAZAN FOREST,-74.02985302011422,4.711112560017363
818,CARRERA 69 # 98A -11 Local 111,Instituciones - IPS,900772053,110012737001,2373,CENTRO DE EXPERTOS PARA LA ATENCION INTEGRAL IPS SAS SIGLA CEPAIN IPS SAS,-74.07514539042663,4.691042739940759
842,AK 86 N° 43 - 04 SUR LC 35,Instituciones - IPS,800003765,110010952321,2436,VIRREY SOLIS IPS S.A. BOSA,-74.17183781978736,4.627376740102545
851,AC 72 No 12 - 69,Instituciones - IPS,900759454,110012790502,2511,DENTIX AV. CHILE BOGOTA,-74.06050888977083,4.657922990274289
853,CARRERA 28 No 63 SUR 20,Instituciones - IPS,900536325,110012427903,2514,PSQ SEDE 4,-74.14904211005211,4.5691509100486565
854,CARRERA 16 A NO. 84 05 PISO 6,Instituciones - IPS,800167228,110010073305,2516,CEUSA CENTRO DE ESPECIALISTAS EN UROLOGIA S A,-74.05711429016112,4.669531529729501
860,Calle 119 A N. 7-57,Instituciones - IPS,860037950,110010561811,2529,Unidad Materno Fetal,-74.03251789037087,4.696531360135851
861,Carrera 9 # 49- 42 Piso 2 Edifico Marly,Instituciones - IPS,811007832,110010778210,2530,IPS SURA CHAPINERO 2,-74.0643979796051,4.6364891101215555
862,Avenida el Dorado #68d-35 Piso 6 COSTADO SUR ORIENTAL,Instituciones - IPS,811007832,110010778211,2536,IPS SURA CAMARA DE COMERCIO DE BOGOTÁ,-74.10624369024217,4.657330589911222
868,CRA 59 NO. 152 19,Instituciones - IPS,800149384,110010918651,2548,CLINISANITAS COLINA CAMPESTRE,-74.06507047998636,4.73810108988188
874,CL 140C # 94D 38 P4,Instituciones - IPS,900136013,110011715501,2557,MEDSALUD SUBA IPS,-74.08826519981126,4.7398861300165676
879,AC 13 NO. 65-21 LC 100 CC CENTENARIO ZONA INDUSTRIAL,Instituciones - IPS,800251440,110012482615,2566,EPS SANITAS CENTRO MEDICO CALLE 13,-74.1160588501231,4.63426463986116
883,DIAGONAL 40A No. 13A-32,Instituciones - IPS,860005114,110011509904,2581,LINDE COLOMBIA AGENCIA LISA TEUSAQUILLO,-74.06807706039393,4.627898629756284
886,KR 32 # 25 B - 90 MN Y PI 5 - PI 6,Instituciones - IPS,860066942,110010733557,2587,SEDE VIVA 1A IPS CALLE 26,-74.08220534007606,4.628276309955416
891,CLL 140 NO. 11 - 15 P2 LC 2,Instituciones - IPS,900618930,110012576406,2609,FURINKAZAN CEDRITOS,-74.03558059033087,4.71872548961896
892,Carrera 3 N° 6 B - 53,Instituciones - IPS,900589178,110012495803,2613,REMY IPS - BELÉN,-74.07472675035142,4.591735909583049
894,CL 6 A # 70 - 94,Instituciones - IPS,900412444,110012213903,2619,HOSPITAL ORTOPÉDICO 3,-74.13167273038445,4.630601020186481
897,CARRERA 20 # 22-61 SUR TORRE 4 QUINTO PISO,Instituciones - IPS,804013017,110011502602,2626,CENTRO NACIONAL DE ONCOLOGIA S.A.,-74.10509490040232,4.583442469738053
906,CARRERA 22 N° 142 - 63,Instituciones - IPS,900359092,110012151503,2649,Instituto Nacional de Demencias Emanuel SAS,-74.04917772044001,4.72551329970973
913,"Cl 44 # 59-75 Piso 1, Unidad Renal, Consultorio 26 y 27",Instituciones - IPS,805011262,110010683414,2670,RTS AGENCIA UNIVERSIDAD NACIONAL,-74.09552838970045,4.649048059994842
914,transversl 83 bis # 72 35,Instituciones - IPS,900799480,110012909001,2683,healthy skin SAS,-74.10451149043936,4.695275269655271
915,CALLE 104A No.11B-30,Instituciones - IPS,830053316,110011114002,2688,CENTRO PSICOTERAPEUTICO ALEXANDER LURIA,-74.04298294003736,4.687456749599117
916,AUTOPISTA NORTE # 104 A - 33,Instituciones - IPS,800215908,110010485721,2691,CLINICA ESIMED JORGE PIÑEROS CORPAS,-74.05671724019543,4.69237239983357
917,DIAGONAL 115 A # 70 D - 68,Instituciones - IPS,800215908,110010485722,2693,CEMES MORATO,-74.07463085968641,4.698265680270244
918,AUTOPISTA NORTE NO.103B-03,Instituciones - IPS,800215908,110010485725,2697,UNIDAD DE DIAGNOSTICO AUTOPISTA NORTE ESIMED,-74.05697802022411,4.690799410027048
919,CALLE 5 # 30 - 18,Instituciones - IPS,800215908,110010485731,2698,CLINICA ESIMED VERAGUAS,-74.09933416977528,4.6054102799171
920,"AC 127 # 16A-27: PISO 1 SECTOR ORIENTAL Y SECTOR OCCIDENTAL- PISO 2 SECTOR SURORIENTAL Y SECTOR SUROCCIDENTAL- PISO 3- PISO 4 CS 401, 402, 405A, 405B Y 421)- PISO 5 SECTOR ORIENTAL- PISO 6 SECTOR ORIENTAL Y PISO 7.",Instituciones - IPS,800215908,110010485730,2701,CLINICA ESIMED SANTA BIBIANA,-74.0448741398488,4.703991669942181
924,CALLE 116 No. 71F - 18,Instituciones - IPS,900136013,110011715502,2718,MEDSALUD 116,-74.07840724958008,4.709754969962881
932,CL 19 SUR NO. 18-75 LC 1 - 2 - 3,Instituciones - IPS,900759454,110012790506,2761,DENTIX BOGOTA RESTREPO,-74.10258646995577,4.584409690236532
933,"CALLE 14 No 62 - 04, Interior 1, Interior 2",Instituciones - IPS,800149384,110010918654,2764,CENTRAL DE URGENCIAS CLINICA COLSANITAS,-74.1125337603369,4.634456449598916
937,AK 45 # 95 - 81 PI 1,Instituciones - IPS,860066942,110010733558,2770,SEDE UNIDAD MEDICA SANTAFE CALLE 95,-74.05814450957,4.684641460056745
938,KR 97# 24 C - 51 LC 7 PI 1 MUELLE INDUSTRIAL,Instituciones - IPS,860066942,110010733559,2771,SEDE CENTRO DE DISTRIBUCION INMUNIZACION EXTRAMURAL,-74.130681409824,4.683034930412163
941,CL 90 NO. 18 - 59 P1,Instituciones - IPS,900759454,110012790505,2775,DENTIX BOGOTA CALLE 90,-74.05596860040733,4.675682879799044
944,Calle 69 # 14 A- 31,Instituciones - IPS,800223206,110012123804,2784,BIENESTAR IPS SEDE ESPECIALISTAS,-74.06368911003125,4.656128790350853
946,DIAGONAL 40 A No 14 - 92,Instituciones - IPS,860015536,110010945609,2795,CENTRO DE ATENCIÓN INTEGRAL EN CUIDADOS PALIATIVOS,-74.06930759961958,4.628854679853202
954,KR 12 # 98 - 64 PI 2 Y PI 3,Instituciones - IPS,860066942,110010733560,2815,UNIDAD DE SERVICIOS DE SALUD CALLE 98,-74.04570959013104,4.682342630281067
955,"CR 18 # 16 - 46 Sur, PISO 3 y PISO 4",Instituciones - IPS,800149384,110010918656,2821,CLINISANITAS DIAGNOSTICO RESTREPO,-74.10022842018273,4.585568210319045
956,"Carrera 46 N° 95-56 Consultorios: 201, 202, 203, 204, 205, 303, 304, 306 y 405",Instituciones - IPS,860013570,110010559732,2824,Centro de Cardiologia Cafam La Castellana,-74.05905641995763,4.6842764797168766
961,TRANSVERSAL 5 ESTE NUMERO 19-50 SUR,Instituciones - IPS,900959051,110013028902,2837,UNIDAD DE SERVICIOS DE SALUD SAN BLAS,-74.08337294962112,4.5696833801320045
962,CARRERA 3 A ESTE NUMERO 31 C-21 SUR,Instituciones - IPS,900959051,110013028905,2840,UNIDAD DE SERVICIOS DE SALUD BELLO HORIZONTE,-74.09263136962156,4.559814949714455
963,CALLE 22 SUR NUMERO 8-A-58,Instituciones - IPS,900959051,110013028906,2841,UNIDAD DE SERVICIOS DE SALUD PRIMERO DE MAYO,-74.09365779993657,4.575299280174812
964,KR 1 F NUMERO 48 X- 40 SUR,Instituciones - IPS,900959051,110013028918,2848,UNIDAD DE SERVICIOS DE SALUD DIANA TURBAY,-74.10645674008484,4.545560369785537
965,TRANSVERSAL 100 A # 80 A - 50,Instituciones - IPS,900971006,110013029103,2860,UNIDAD DE SERVICIOS DE SALUD ENGATIVÁ CALLE 80,-74.1093294499555,4.711280709753267
966,CARRERA 107 # 75 B - 08,Instituciones - IPS,900971006,110013029108,2864,UNIDAD DE SERVICIOS DE SALUD GARCES NAVAS,-74.12059418976939,4.710457109777766
967,CARRERA 73 A # 81 B -10,Instituciones - IPS,900971006,110013029111,2865,UNIDAD DE SERVICIOS DE SALUD MINUTO DE DIOS,-74.08986014961505,4.698448820374076
968,CARRERA 97 A # 65 - 63,Instituciones - IPS,900971006,110013029112,2866,UNIDAD DE SERVICIOS DE SALUD ALAMOS,-74.1206427796431,4.695528819652537
969,CARRERA 92 Nº 147C-30,Instituciones - IPS,900971006,110013029115,2869,UNIDAD DE SERVICIOS DE SALUD SUBA,-74.08414343014873,4.7435831699078355
970,TRANSVERSAL 116C Nº133-18,Instituciones - IPS,900971006,110013029116,2870,UNIDAD DE SERVICIOS DE SALUD GAITANA I,-74.11028343024452,4.740901640268511
971,CALLE 144 141A - 50 IN 67,Instituciones - IPS,900971006,110013029120,2874,UNIDAD DE SERVICIOS DE SALUD SAN CARLOS,-74.11434564968856,4.752318150344692
972,CRA 1 BIS # 163-10,Instituciones - IPS,900971006,110013029127,2878,UNIDAD DE SERVICIOS DE SALUD SANTA CECILIA,-74.01669072041666,4.734518010183467
973,CRA 6 # 180C-14,Instituciones - IPS,900971006,110013029129,2879,UNIDAD DE SERVICIOS DE SALUD CODITO,-74.0240748702555,4.757494020156799
974,CALLE 164 # 7F-10,Instituciones - IPS,900971006,110013029130,2880,UNIDAD DE SERVICIOS DE SALUD SAN CRISTÓBAL,-74.02512905042794,4.739944509714474
975,CRA 6 A # 119B-14,Instituciones - IPS,900971006,110013029133,2883,UNIDAD DE SERVICIOS DE SALUD USAQUÉN,-74.03049903995752,4.696348669863934
976,CALLE 88 # 95 F - 00,Instituciones - IPS,900971006,110013029107,2886,UNIDAD DE SERVICIOS DE SALUD BACHUÉ,-74.10338728030231,4.716026869630921
977,KR 18 A BIS No. 60 G 84 SUR,Instituciones - IPS,900958564,110013029403,2889,UNIDAD DE SERVICIOS DE SALUD MEISSEN AMBULATORIO,-74.13861296964079,4.558964569589748
978,CL 48 A SUR No. 28 - 48,Instituciones - IPS,900958564,110013029408,2894,UNIDAD DE SERVICIOS DE SALUD EL CARMEN - SALUD ORAL,-74.13151052967842,4.583265019879038
979,CL 57 SUR No. 67 - 27,Instituciones - IPS,900958564,110013029411,2897,UNIDAD DE SERVICIOS DE SALUD ISLA DEL SOL,-74.15740286964028,4.5955130998430045
980,KR 12 No. 53 - 90 SUR,Instituciones - IPS,900958564,110013029412,2898,UNIDAD DE SERVICIOS DE SALUD AMBULATORIA - ABRAHAM LINCON,-74.12597813013535,4.559092800426431
981,CL 76 B SUR No. 7 - 64,Instituciones - IPS,900958564,110013029433,2912,UNIDAD DE SERVICIOS DE SALUD BETANIA,-74.11030371959353,4.512121360347424
982,KR 1 D ESTE No. 65 G - 08 SUR,Instituciones - IPS,900958564,110013029443,2920,UNIDAD DE SERVICIOS DE SALUD FISCALA,-74.11455370040667,4.5328521496792895
983,CL 75 SUR No. 9 A - 39,Instituciones - IPS,900958564,110013029444,2921,UNIDAD DE SERVICIOS DE SALUD SANTA LIBRADA II,-74.11340853976057,4.515111020447056
984,CALLE 10 # 86 - 58,Instituciones - IPS,900959048,110013029603,2925,Unidad de Servicios de Salud Patio Bonito Tintal,-74.14872494995959,4.6516509401492225
985,Carrera 80C No. 2 - 40,Instituciones - IPS,900959048,110013029605,2927,Unidad de Servicios de Salud 10 Abastos,-74.15128065963785,4.620826079615661
986,Carrera 59 No. 14 - 44,Instituciones - IPS,900959048,110013029606,2928,Unidad de Servicios de Salud 11 Puente Aranda,-74.11081480978622,4.632399690323989
987,Carrera 52 No. 37 - 05 sur,Instituciones - IPS,900959048,110013029607,2929,Unidad de Servicios de Salud 26 Alcalá Muzú,-74.12982318006281,4.601893359992927
988,Carrera 72 G No. 39 - 95 sur,Instituciones - IPS,900959048,110013029617,2938,Unidad de Servicios de Salud 72 Argelia,-74.1435882196716,4.607817939938465
989,Calle 2A No. 88B - 47,Instituciones - IPS,900959048,110013029620,2940,Unidad de Servicios de Salud 92 Patios,-74.16129532995349,4.64295488974623
990,Calle 23 No 112 - 60,Instituciones - IPS,900959048,110013029627,2947,Unidad de Servicios de Salud 49 Internacional,-74.14526286980404,4.686654839946204
991,Carrera 96 No 25 G- 18,Instituciones - IPS,900959048,110013029628,2948,Unidad de Servicios de Salud 50 Puerta De Teja,-74.12558121042537,4.683186899602726
992,Carrera 106 No 15 A -32,Instituciones - IPS,900959048,110013029630,2950,Unidad de Servicios de Salud 51 Zona Franca,-74.15371189964867,4.67266142998927
993,Carrera 104 No. 20C - 31,Instituciones - IPS,900959048,110013029633,2953,Unidad de Servicios de Salud Boston,-74.14391235967388,4.678329420131115
994,Cr 77 i No. 65j - 58 sur primer piso,Instituciones - IPS,900959048,110013029650,2963,Unidad de Servicios de Salud Pablifarmacia,-74.18801656968252,4.597801479829713
995,KR 4 No. 3 - 29 PASQUILLA,Instituciones - IPS,900958564,110013029418,2968,UNIDAD DE SERVICIOS DE SALUD MOCHUELO,-74.14830369039699,4.4885344498823505
996,KR 18 C No. 66 A - 55 SUR,Instituciones - IPS,900958564,110013029428,2969,UNIDAD DE SERVICIOS DE SALUD VISTA HERMOSA,-74.14464843023455,4.552677169566119
999,CARRERA 8#17-44 SUR,Instituciones - IPS,860015888,110010566809,2974,HOSPITAL UNIVERSITARIO CLINICA SAN RAFAEL,-74.0902814702631,4.575976670104537
1001,Avenida Américas N° 66 a - 27 segundo piso,Instituciones - IPS,800149453,110010917803,5,ODONTOAMERICAS,-74.12237243002713,4.626095518688988
1003,CALLE 79 N ° 89 A 40 OF 301,Instituciones - IPS,800003765,110010952312,13,VIRREY SOLIS IPS. S.A. MINUTO,-74.10343316085714,4.704868966224209
1007,AK 19 N 100-28,Instituciones - IPS,800149169,110010857502,18,CLINICA JOSE A RIVAS VIP,-74.05164914029686,4.6865193971764985
1008,KR 7 # 40 B - 17 Sótano 1,Instituciones - IPS,860015536,110010945604,20,PUNTO DE TOMA DE MUESTRAS TEUSAQUILLO,-74.06563516636385,4.627654403192802
1015,Av 1ra No 10 Bis-22 piso 2,Instituciones - IPS,800065396,110010240424,34,INSTITUTO DE DIAGNÓSTICO MÉDICO COMPENSAR AV 1RO DE MAYO,-74.09511669989058,4.576309413658965
1017,AV SUBA CL 145 NO. 88 76,Instituciones - IPS,800251440,110012482603,36,UNIDAD DE ATENCION PRIMARIA SUBA,-74.08353829173568,4.737664289640285
1018,CR 7 N 124 45,Instituciones - IPS,800251440,110012482610,39,UNIDAD DE ATENCION PRIMARIA USAQUEN,-74.02912327099821,4.700167237100867
1019,calle 116 n 9-72 consultorio 401 y 419,Instituciones - IPS,900689027,110012685901,40,cefert s.a.s,-74.03610558285088,4.695180761710754
1030,DIAGONAL 45 BIS B SUR NUMERO 13 F-72,Instituciones - IPS,900959051,110013028924,79,UNIDAD DE SERVICIOS DE SALUD SAN JORGE,-74.12089984513807,4.571693366443748
1035,Cl. 80 N° 92-27,Instituciones - IPS,900363673,110012400405,89,SINERGIA SALUD ATENCION BASICA CALLE 80,-74.1066789051327,4.705141534915104
1037,CLL 83No. 16 a - 44 Edificio CIMA OF. 401,Instituciones - IPS,900545277,110012485602,95,OFTALMOVER S.A.S,-74.05735919156882,4.669566245394148
1039,CALLE 134 NO. 7 - 83 TORRE 3 PISO 4 CONSULTORIO 341,Instituciones - IPS,900113458,110011642601,100,EMURACENTER LATINOAMERICA EU,-74.02988025703362,4.711481564021396
1042,CR 45 A N° 94 71,Instituciones - IPS,900328323,110012084003,105,MIOCARDIO S.A.S CASTELLANA,-74.05894881615961,4.683139831040093
1044,Calle 64 sur 35 - 39,Instituciones - IPS,830018305,110010919914,107,JAVESALUD CIUDAD BOLIVAR,-74.15101212086007,4.569746877176278
1046,CENTRO COMERCIAL PLAZA CENTRAL Carrera 65 # 11-90 Local 2-01,Instituciones - IPS,860048656,110010391605,109,FUNDACION OFTALMOLOGICA NACIONAL,-74.1152298955587,4.631964965790582
1053,CARRERA 62 No. 11 - 31 local 3-07,Instituciones - IPS,900759454,110012790509,127,DENTIX CC PLAZA CENTRAL,-74.11522237037157,4.63084778056161
1054,CR 49 B NO. 94 - 40,Instituciones - IPS,800251440,110012482618,131,EPS SANITAS CENTRO MEDICO CASTELLANA,-74.06247239857277,4.683142918090392
1057,KR 71 D # 6 94 SUR Local 3505,Instituciones - IPS,860007336,110010817156,137,CONSULTORIO MÉDICO COLSUBSIDIO PLAZA DE LAS AMERICAS,-74.13528837035128,4.618916270168504
1059,CL 8 No. 5 - 80 PI 1,Instituciones - IPS,860066942,110010733561,140,CONSULTORIO EMPRESARIAL UNIVERSIDAD LIBRE CENTRO,-74.07536613433973,4.595153311674198
1061,CR 7 No. 52-53,Instituciones - IPS,830001007,110010403512,146,CENTRO MEDICO COLMEDICA SEDE CHAPINERO,-74.06333624999104,4.638906090147523
1064,CALLE 26 SUR No 26C - 50,Instituciones - IPS,800223206,110012123807,151,BIENESTAR SEDE CENTENARIO,-74.11046725968764,4.588359987432664
1065,TV 99 BIS No. 70 A -89 LC 259,Instituciones - IPS,900759454,110012790510,154,DENTIX DIVERPLAZA,-74.11588794923354,4.701182356944105
1069,CL 97 N° 23-37 LOCAL 205,Instituciones - IPS,800227072,110010822206,171,EUSALUD LABORATORIO CLÍNICO,-74.05690277284431,4.684613067849215
1093,Carrera 18 No 140 - 53,Instituciones - IPS,860400547,110010262201,245,SOCIEDAD DE ENFERMERAS PROFESIONALES LTDA,-74.04504639988937,4.723446749648835
1094,Carrera 18 No.134-71,Instituciones - IPS,860400547,110010262202,246,SOCIEDAD DE ENFERMERAS PROFESIONALES LTDA,-74.04584851009814,4.718408250447184
1096,CRA 18 # 79 32,Instituciones - IPS,830053297,110010182401,251,INSTITUTO OFTALMOLOGICO SALAMANCA S.A IOSAL,-74.05894842988405,4.66652786973487
1100,"CL 134 NO 7 B 83 P3 CS 301, 302, 303, 304, 305, 508, 509",Instituciones - IPS,830027558,110010231702,267,IMEVI LTDA,-74.03207532995624,4.711859999597484
1104,KR 7A # 121 - 36,Instituciones - IPS,800089364,110010301601,275,INSTITUTO DE CORNEA,-74.0309784501634,4.698279830436415
1112,AV BOYACA No. 51-96,Instituciones - IPS,830028950,110010447101,309,INDESAN S.A SONRIA -NORMANDIA,-74.10777040042372,4.669908250199306
1114,CALLE 93 # 19 80,Instituciones - IPS,830102932,110010357901,313,CENTRO OCULAR DE MIOPIA DR RINCON,-74.05569875008923,4.678956120442707
1117,AC 134 # 7 83 TO 3 PI 6 MD 361,Instituciones - IPS,830058292,110010369401,316,UROBOSQUE S.A,-74.02988025972857,4.711481560440283
1121,CALLE 50 # 7 36 PI 4,Instituciones - IPS,830014121,110010401401,324,PMA MARLY,-74.06397051987042,4.636920239627493
1129,Carrera 7 # 55-37,Instituciones - IPS,800215908,110010485711,347,CAFI CALLE 56,-74.06251290001568,4.641908290390032
1132,CALLE 40 SUR No 73D-12,Instituciones - IPS,830114846,110010672501,356,CEDIT LTDA,-74.15267389993112,4.617408229627944
1140,CRA 16 # 82 95 CONS 801 - 802,Instituciones - IPS,830007382,110010527101,375,UNIDAD DE ESPECIALISTAS OFTALMOLOGICOS S.A.,-74.05654479959351,4.66893613978691
1141,KR 78 K # 33 A 76 SUR,Instituciones - IPS,830025766,110010546401,378,UNIDAD DE ATENCION PRIMARIA DARSALUD,-74.15080095029298,4.626486350418221
1143,CRA 7 # 68 70,Instituciones - IPS,860007760,110010532201,384,CLINICA LA INMACULADA,-74.05692835955857,4.651492029592849
1144,Calle 51 No. 15- 34,Instituciones - IPS,860013570,110010559702,386,Centro de Atención en Salud Cafam Clínica,-74.06811967018281,4.638939689897959
1145,TV 94 Nº 82 20,Instituciones - IPS,860013570,110010559703,387,Centro de Atención en Salud Cafam Quirigua,-74.10435355044272,4.708103400017053
1146,CL 119 # 7 75,Instituciones - IPS,860037950,110010561801,390,FUNDACION SANTA FE DE BOGOTA,-74.03319863009992,4.695590700123317
1151,CLL 90 # 19 C - 41,Instituciones - IPS,800252821,110010576601,403,FUNDACION OPERACION SONRISA COLOMBIA,-74.0579646300192,4.676698439905716
1156,CALLE 13 # 68 F 25,Instituciones - IPS,860015905,110010572501,413,CLINICA DE NUESTRA SEÑORA DE LA PAZ,-74.12596866009562,4.63817364008231
1157,Avenida Carrera 14 No 1-65,Instituciones - IPS,899999123,110010568101,415,FUNDACION HOSPITAL DE LA MISERICORDIA,-74.08857348993867,4.593613320162669
1159,CRA 16 # 82 57,Instituciones - IPS,830005028,110010959901,421,CLINICA DEL COUNTRY IPS,-74.05689998986358,4.668954789601641
1164,"AK 7 # 119-14 CS 107, 213 A 217, 425",Instituciones - IPS,800162636,110010678001,441,CENTRO QUIRURGICO DE LA SABANA S.A - CIRUSABANA S.A,-74.03180444028739,4.696000110068094
1176,"CL 134 NO 7 B - 83 CONS 307 AL 311, 313 A 317 Y 620",Instituciones - IPS,830103525,110010748101,486,OFTALMOSANITAS SAS,-74.03207532995624,4.711859999597484
1178,CL 134 # 17 71,Instituciones - IPS,860007400,110010744001,490,INSTITUTO COLOMBIANO DEL SISTEMA NERVIOSO - CLINICA MONTSERRAT,-74.0466385298815,4.71674639020696
1179,CALLE 67 # 9 55,Instituciones - IPS,860043998,110010735705,494,OPTICENTRO INTERNACIONAL OPTICA CALLE 67 II,-74.05978983958987,4.651700569752273
1180,CL 79 # 112 B 29 LC 16,Instituciones - IPS,860043998,110010735706,495,OPTICENTRO INTERNACIONAL OPTICA COLSUBSIDIO CIUDADELA,-74.11924802029868,4.720271629886708
1182,CALLE 42 # 13 19,Instituciones - IPS,860066942,110010733504,504,UNIDAD DE SERVICIOS CALLE 42,-74.06720130000997,4.629629620189595
1183,AC 134 # 7 B 83 LC 17,Instituciones - IPS,860066942,110010733505,505,UNIDAD DE SERVICIOS CALLE 134,-74.03207532995624,4.711859999597484
1188,KR 14 # 127 11 PI 1 Y 2,Instituciones - IPS,800099652,110010768301,517,CLINICA LA CAROLINA S.A.,-74.04108265017354,4.704414379840505
1193,AK 45 # 106 30,Instituciones - IPS,800247537,110010752201,529,CLINICA VASCULAR NAVARRA LTDA / CLINICA NAVARRA,-74.05543662977415,4.69382030965722
1194,AK 14 # 26 A 79 SUR,Instituciones - IPS,811007832,110010778206,531,IPS SURA OLAYA BOGOTA,-74.10676588989996,4.579545779971559
1199,CL 26 # 24 52 PI 1 Y 3,Instituciones - IPS,860007336,110010817105,569,CENTRO MEDICO COLSUBSIDIO CALLE 26,-74.07738489042995,4.622320839572849
1200,CRA 4 ESTE # 17 50 AV CIRCUNVALAR,Instituciones - IPS,860013874,110010825801,573,INSTITUTO DE ORTOPEDIA INFANTIL ROOSEVELT,-74.06431873023074,4.597794169584346
1202,KR. 19 B # 84 65,Instituciones - IPS,800127648,110010845601,579,HORUS PRINCIPAL,-74.05890243973477,4.671257629638525
1213,TRANSV. 3 NO. 51A-46,Instituciones - IPS,860001475,110010864801,608,CLINICA SANTO TOMÁS S.A,-74.06099339971257,4.637311870316484
1214,AV 1 DE MAYO # 38 41 SUR,Instituciones - IPS,860013779,110010899504,612,"ASOCIACION PROBIENESTAR DE LA FAMILIA COLOMBIANA ""PROFAMILIA""",-74.1163431300796,4.5992610900558075
1217,CL 10 No. 18 - 75,Instituciones - IPS,899999017,110010867901,622,Sociedad de Cirugía de Bogotá - Hospital de San José,-74.08636193023564,4.603357079855949
1220,CALLE 77 # 12 A 11,Instituciones - IPS,800149384,110010918602,629,Odontosanitas El Lago,-74.0573434503901,4.662365410334054
1221,"CR. 21 NO. 127 - 03 / AC 127 21 - 60 CN 106, 107, 108, 109, 110 LC 107, 108, 109, 111",Instituciones - IPS,800149384,110010918608,634,CLINICA REINA SOFIA,-74.05188481959985,4.706862759756376
1222,AK 7 124 - 45 PISO 1,Instituciones - IPS,800149384,110010918610,635,LABORATORIO UAP USAQUEN,-74.0291232700999,4.700167239786761
1223,CL 36 # 28 50 / 28 42,Instituciones - IPS,800149384,110010918611,636,CLINISANITAS LA SOLEDAD,-74.07756877017871,4.625704119962588
1225,CALLE 10 No. 18-75,Instituciones - IPS,830007355,110010994101,646,UNIDAD RENAL HOSPITAL SAN JOSE,-74.08636193023564,4.603357079855949
1226,Calle 134 No. 7 b - 83 Piso 2 Consultorio 218,Instituciones - IPS,830007355,110010994103,647,FRESENIUS MEDICAL CARE COLOMBIA UNIDAD RENAL HORIZONTE,-74.05129043042747,4.706636019644195
1227,AC 6 # 71 C-29,Instituciones - IPS,830007355,110010994105,648,UNIDAD RENAL DE LA CLINICA DE OCCIDENTE,-74.13567718995233,4.62937468005086
1233,AV CARACAS # 30 51,Instituciones - IPS,860074971,110010975701,674,INSTITUTO MEDICO DE ESPECIALISTAS CLINICA DE ESPECIALISTAS CENTROODONTOLOGICO,-74.07167598001838,4.618298970074617
1234,Carrera 16 No. 82 - 51 piso dos,Instituciones - IPS,800119574,110011000601,677,OPTISALUD,-74.05713557035189,4.667762249792692
1237,KR 5 # 94 71 SUR,Instituciones - IPS,830040342,110011005401,685,CENTRO DE SALUD JUAN BONAL,-74.11215798966366,4.50007283993675
1238,CL 118 # 21-05,Instituciones - IPS,830053316,110011114001,686,FUNDACION CRESER,-74.05236901962282,4.699716289708636
1239,CL 113 # 7 45 TO B OF 1410-613,Instituciones - IPS,830081128,110011015201,689,BOGOTA LASER REFRACTIVE INSTITUTE S.A,-74.03493264000801,4.691380659714452
1253,CALLE 89 A # 20 57,Instituciones - IPS,830005127,110011177501,719,CENTRO DE CIRUGIA AMBULATORIA IPS LTDA,-74.059834510114,4.677025269965022
1261,TV 60 # 115 - 58 TO B OF 304 A LA 317 y TO C LC 103 Y 104,Instituciones - IPS,800149384,110010918624,757,CLINISANITAS ILARCO,-74.06931673009612,4.699264549688073
1264,KR 53 50 48 SUR,Instituciones - IPS,800003765,110010952307,762,VIRREY SOLIS I.P.S S.A. VENECIA,-74.13854594004923,4.590094699779022
1278,AK 7 40B 17,Instituciones - IPS,830018305,110010919904,791,JAVESALUD JAVERIANA,-74.06563516995712,4.627654399611252
1279,AK 68 13 71,Instituciones - IPS,830128856,110011275117,795,IPS COMPLEJO AVENIDA 68,-74.11713078998869,4.639039460356746
1280,CALLE 163 A # 15 77/89,Instituciones - IPS,860007336,110010817114,797,CLINICA MATERNO INFANTIL COLSUBSIDIO,-74.03791608969532,4.742021859930547
1283,KR 111 C # 86 74 LC 1-16,Instituciones - IPS,860043998,110010735718,803,OPTICENTRO INTERNACIONAL UNICENTRO OCCIDENTE,-74.1135489302698,4.722770640272131
1284,KR 7 # 139 07 LC 1-25,Instituciones - IPS,860043998,110010735720,805,OPTICENTRO INTERNACIONAL OPTICA PALATINO,-74.02935392961709,4.715607219677333
1289,AV CARACAS 49-55 LC5,Instituciones - IPS,900033752,110011507002,829,OPTICA UNIVER TEUSAQUILLO,-74.06744503989601,4.637069330309077
1290,AV. CALLE 145 No 101 - 12 LOCAL 7 C.C. FIESTA SUBA,Instituciones - IPS,900033752,110011507004,830,OPTICA UNIVER HILARCO,-74.09238396011759,4.743699780064211
1291,DG 49 A SUR # 51 29 LOCAL 2,Instituciones - IPS,900033752,110011507005,831,OPTICA UNIVER VENECIA,-74.13900042020936,4.591017470034359
1294,CRA 24 50-68,Instituciones - IPS,830027558,110010231706,841,IMEVI LTDA,-74.0742426599229,4.639397629821575
1295,CL 65 SUR 78L 65,Instituciones - IPS,830128856,110011275118,845,IPS BOSA,-74.17310614035722,4.595261430094808
1297,CL 146 A # 106 20 LC 1-095,Instituciones - IPS,860043998,110010735725,860,OPTICENTRO INTERNACIONAL PLAZA IMPERIAL,-74.09563165014404,4.748537520211498
1305,KR 101 # 69 - 67,Instituciones - IPS,860007336,110010817116,880,CENTRO MEDICO COLSUBSIDIO TIERRA GRATA,-74.12025855043316,4.701167580131699
1306,CL 17 # 114 12 LC 5-6-18,Instituciones - IPS,860007336,110010817117,881,CENTRO MEDICO COLSUBSIDIO FONTIBON,-74.15404358010944,4.682188299955007
1307,KR 48 # 122 - 28,Instituciones - IPS,900006808,110011590401,882,CENTRO DE SALUD CIRUGIA ESTETICA AMBULATORIA,-74.0574815097712,4.703713070128896
1310,Cl 94 No 23 -43,Instituciones - IPS,860066942,110010733509,896,UNIDAD DE SERVICIOS CALLE 94,-74.05755959043736,4.681134420111582
1320,AK 45 # 176 31 PI 2,Instituciones - IPS,860007336,110010817118,928,CENTRO MEDICO COLSUBSIDIO PORTAL DEL NORTE,-74.04633756012534,4.757124979818798
1321,AK 68 Nro 68B-31,Instituciones - IPS,830007355,110010994107,930,FRESENIUS MEDICAL CARE COLOMBIA S.A UNIDAD RENAL CRUZ ROJA BOGOTA,-74.08931158979355,4.673155680413957
1323,CL 137 # 19 42,Instituciones - IPS,900090619,110011645001,936,TPF CIRUJANOS Y CIA LTDA- NUEVA CLINICA LOS CEDROS,-74.04707521980573,4.721682749764247
1330,AUTOP SUR # 71 75,Instituciones - IPS,860007336,110010817127,961,CONSULTORIO MEDICO MEXICHEM COLOMBIA SAS,-74.16433437008554,4.595529030390633
1332,Carrera 89a # 79 - 03 4° piso,Instituciones - IPS,800149384,110010918634,973,CLINISANITAS CALLE 80,-74.10347350958645,4.704416729973929
1337,CL 103 # 69 B 43 Casa 6,Instituciones - IPS,860066942,110010733510,988,CONSULTORIO EMPRESARIAL CARACOL TELEVISION,-74.07322046965605,4.694026700137962
1340,CL 94 # 23 - 43 PISO 6-7,Instituciones - IPS,800065396,110010240415,992,INSTITUTO DE DIAGNOSTICO MEDICO S.A COMPENSAR CLL 94,-74.05755959043736,4.681134420111582
1344,Calle 28 No. 13A - 15 - Piso 2,Instituciones - IPS,860066942,110010733514,1004,CAJA DE COMPENSACION FAMILIAR / CONSULTORIO EMPRESARIAL MINISTERIO DE COMERCIO INDUSTRIA Y TURISMO,-74.07126672015136,4.615888550136794
1345,AV. ELDORADO No. 68 D-35 P 6,Instituciones - IPS,860066942,110010733515,1005,CAJA DE COMPENSACION FAMILIAR / CONSULTORIO EMPRESARIAL CAMARA DE COMERCIO DE BOGOTA,-74.10624369024217,4.657330589911222
1346,CL 72 No. 11-86,Instituciones - IPS,860066942,110010733516,1006,CAJA DE COMPENSACION FAMILIAR / CONSULTORIO EMPRESARIAL UNIVERSIDAD PEDAGOGICA NACIONAL,-74.0591966604482,4.658360769848387
1347,KR 127 No. 15B-60 Piso 1,Instituciones - IPS,860066942,110010733518,1008,CAJA DE COMPENSACION FAMILIAR / CONSULTORIO EMPRESARIAL FINART S.A.,-74.16320917988654,4.688067029806612
1348,CL 75 # 22 66 PI 2,Instituciones - IPS,800149384,110010918636,1023,LABORATORIO UAP URILAR HEROES,-74.06440680016287,4.665228920129933
1354,CL 6 C# 69 A 57 CS 101-102-201-202-203-204-205-206-301-302-303-304,Instituciones - IPS,860066191,110011005810,1051,CENTRO MEDICO MEDICOS ASOCIADOS PAEZ,-74.12886290977018,4.63093841030576
1377,KR 7 C # 124 - 52,Instituciones - IPS,900174031,110011776601,1106,CLINICA MARCO MARTINEZ EU CLINICA SAN MIGUEL,-74.03174998980474,4.701066259804505
1381,CL 19 SUR # 21-32 PI 3 y 4,Instituciones - IPS,860007336,110010817134,1119,CENTRO MEDICO COLSUBSIDIO RESTREPO,-74.10355215978451,4.5858549399415685
1382,AC 26 No. 51-80,Instituciones - IPS,860066942,110010733526,1120,CAJA DE COMPENSACION FAMILIAR / CONSULTORIO EMPRESARIAL SUPERINTENDENCIA DE SOCIEDADES,-74.09491388006236,4.643343460304666
1388,KR 36 # 25 D 14,Instituciones - IPS,860066191,110011005813,1139,INSTITUTO MEDICO DE ESPECIALISTAS FUNDADORES,-74.08477795964124,4.631326510235546
1396,CRA 54 N 3-28,Instituciones - IPS,900175878,110011828401,1159,VIVIRSALUD UNIDAD MEDICOQUIRURGICA DE ESPECIALISTAS,-74.11869876967272,4.619109520282297
1402,KR 18 N° 84 - 11 PISO 2 Y 3,Instituciones - IPS,830001007,110010403504,1173,CENTRO MEDICO COLMEDICA SEDE COUNTRY PARK,-74.05756643020993,4.669940130325412
1408,"Calle 23 No. 66- 46 IN 4 CN 411, CN 1011, CN 1012",Instituciones - IPS,900167843,110011852801,1189,COLTRAUMA S.A.S,-74.10640329032543,4.64804106970914
1410,CL 20 Nº 82 - 52 LC 1 - 33,Instituciones - IPS,860043998,110010735728,1199,OPTICENTRO INTERNACIONAL HAYUELOS,-74.13032906990833,4.663635690145809
1413,KR 7 C # 127 07,Instituciones - IPS,900224252,110011895801,1219,CLINICA DA VINCI SAS,-74.0313245198384,4.7032183900942774
1417,AC 127 No 20-51 PISOS 2 y 3,Instituciones - IPS,800149384,110010918641,1227,PROGRAMA DE HOSPITALIZACION DOMICILIARIA,-74.05115732974677,4.706006770233981
1418,Calle 27 Nº 26- 24 Sur,Instituciones - IPS,860013570,110010559713,1228,Centro de Atención en Salud Cafam Centenario,-74.11084534981094,4.586714489671007
1420,AK 45 (AUTOP NORTE) # 162 - 52,Instituciones - IPS,800003765,110010952314,1235,VIRREY SOLIS IPS S.A. AUTOPISTA NORTE CALLE 162,-74.04712100963071,4.743522539888043
1425,"AC 145 No 85-52 LOCAL 1 , LOCAL 3",Instituciones - IPS,800003765,110010952315,1257,VIRREY SOLIS IPS S.A - SUBA,-74.0816156401095,4.737604280401858
1428,CARRERA 45 A N° 95 - 57,Instituciones - IPS,900210768,110011934101,1267,CIRUGÍA PLÁSTICA LA CASTELLANA S.A.S.,-74.05875357990902,4.684308170277514
1432,CALLE 83 No. 16 A-43 PISO 1,Instituciones - IPS,830005028,110010959904,1282,CENTRO DE INVESTIGACIÒN CLINICA DEL COUNTRY,-74.0571041499782,4.669140989575518
1450,"CALLE 83 No 16A-10 piso 2,3,4,5",Instituciones - IPS,830005028,110010959905,1348,CENTRO DE ONCOLOGIA CLINICA DEL COUNTRY,-74.05716561001499,4.669350110046718
1452,AC 13 # 47 54,Instituciones - IPS,830128856,110011275133,1354,IPS ZONA INDUSTRIAL,-74.10504170037457,4.626469840353148
1453,DG 49 SUR # 53 59,Instituciones - IPS,830128856,110011275141,1361,CENTRO MEDICO FAMILIAR VENECIA,-74.13919074986185,4.59153533993162
1455,AC 20 SUR # 6 28,Instituciones - IPS,830128856,110011275145,1366,CENTRO MEDICO Y ODONTOLOGICO 20 DE JULIO,-74.09160233958212,4.573157920095859
1463,"CL 97 No. 23 37 CONS 307, 703, 704, 721",Instituciones - IPS,900159763,110012021301,1381,SERVICIOS OFTALMOLOGICOS OFTALMOCENTER LTDA SIGLA OFTALMOCENTER LTDA,-74.0566910596948,4.684747740122781
1467,CL 24 # 81-93,Instituciones - IPS,900295612,110012025101,1389,CORPOLINEA EU,-74.12207233972164,4.668193170338287
1468,Carrera 15 No. 68 - 51,Instituciones - IPS,844002258,110012025201,1390,SERVICIO CARDIOLÓGICO DEL LLANO,-74.06451985044644,4.656332150429512
1471,CL 45 B No 24-25,Instituciones - IPS,800065396,110010240419,1395,INSTITUTO DE DIAGNÓSTICO MÉDICO S.A SEDE PALERMO,-74.07543897962444,4.635133860197272
1473,CL 127 No. 19 A - 28 CS 602 y 603,Instituciones - IPS,900301238,110012034201,1400,CENTRO ESPECIALIZADO EN CUIDADO DE HERIDAS Y OSTOMIAS,-74.04963014974633,4.7057322904436365
1475,KR 15 # 34 47,Instituciones - IPS,860013779,110010899505,1403,ASOCIACION PROBIENESTAR DE LA FAMILIA COLOMBIANA PROFAMILIA,-74.07045742970853,4.623715520233039
1477,KR 96 C # 21 A 43,Instituciones - IPS,900211668,110012041401,1406,CLINICA SANTA TERESITA DEL NIÑO JESUS S.A.,-74.1368462700395,4.672026719792709
1482,AC 26 No.66A-48 PISO 2-3 Torre C,Instituciones - IPS,800065396,110010240421,1429,IDIME S.A COMPENSAR 26,-74.10170140033051,4.652548090263403
1484,CL 134 # 7 B 83 LC 2,Instituciones - IPS,830027558,110010231710,1434,IMEVI LTDA,-74.03207532995624,4.711859999597484
1486,CRA. 19C No. 91-08,Instituciones - IPS,800117564,110010793902,1441,CENTRO ADMINISTRATIVO Y ASISTENCIAL CM,-74.05688650974442,4.677360079891244
1489,AK 36 No. 23 - 33,Instituciones - IPS,860066942,110010733533,1459,UNIDAD DE SERVICIOS EAAB CENTRO NARIÑO,-74.0913745699452,4.626509979715102
1490,AK 14 N. 41 - 70 SUR,Instituciones - IPS,860066942,110010733535,1461,UNIDAD DE SERVICIOS EAAB SANTA LUCIA,-74.12188178998187,4.573654060394979
1491,KR 13 No 28-44 sur P 2,Instituciones - IPS,900328323,110012084001,1464,Miocardio SAS,-74.10441773956136,4.573800040097265
1494,KR 52 N° 67 A 71 Zona 18,Instituciones - IPS,800003765,110010952320,1479,VIRREY SOLIS IPS.S.A SAN JOSE INFANTIL,-74.07897204016216,4.665141070347072
1495,AK 45 Nº 123-24 Sótano CS 8 Piso 1,Instituciones - IPS,860015536,110010945606,1481,PUNTO DE TOMA DE MUESTRAS SANTA BARBARA,-74.05385317032116,4.704346010203197
1496,Transversal 74F #40G-35 SUR,Instituciones - IPS,900033752,110011507010,1482,OPTICA UNIVER KENNEDY,-74.15528685025929,4.616912090232175
1498,CLL 98 # 9A-46 PISO 2 Y 7,Instituciones - IPS,900341876,110012093701,1486,WORLD MEDICAL CENTER,-74.04287711041205,4.6808171101090466
1509,KR 7ª No 26-04 SUR PI1 Y PI3 (303),Instituciones - IPS,860066942,110010733539,1520,SEDE 20 DE JULIO,-74.09485889957371,4.570131779643757
1510,Carrera 14 A No. 68 - 31,Instituciones - IPS,800223206,110012123801,1525,BIENESTAR IPS S.A.S. CHAPINERO,-74.06367933007274,4.655586390271967
1516,CL 83 # 16 A 44 LC 402 604 602,Instituciones - IPS,900219866,110012132301,1538,MEDICARTE AGENCIA BOGOTÁ,-74.05690277014938,4.684613069639842
1517,CL. 63 # 11-45 OF. 209 y 213,Instituciones - IPS,900232301,110012134001,1541,AUDIFONOS ALCIRA RAMIREZ SAS,-74.06295655008672,4.649094930282857
1522,KR 14 A # 112 79,Instituciones - IPS,900167158,110012143501,1562,NEXUS GROUP SAS,-74.0420235797381,4.695538750323829
1527,Calle 20 No. 98-62,Instituciones - IPS,900385628,110012156401,1577,Medicentro Familiar IPS SAS,-74.14212514973805,4.674393450155331
1532,CL 79 No. 89A-40 LC 221-222,Instituciones - IPS,800233471,110010548023,1597,SEDE CL 80 C.C. PRIMAVERA PLAZA,-74.10353978998306,4.7046289402744055
1551,AC 57 # 26 12,Instituciones - IPS,900412444,110012213901,1656,IPS HOSPITAL ORTOPEDICO SAS,-74.07387002975989,4.645662319889274
1552,CALLE 124 NO 7 38 P 7 702,Instituciones - IPS,900422248,110012215301,1660,INSTITUTO DE FERTILIDAD HUMANA SAS,-74.02940438978324,4.699879390049197
1562,CALLE 27 SUR N° 21 A - 47,Instituciones - IPS,900033752,110011507014,1690,OPTICA UNIVER OLAYA,-74.1089972799129,4.582745610089806
1563,DIAGONAL 53 SUR # 1 -51 piso 2,Instituciones - IPS,830018305,110010919911,1694,JAVESALUD PALERMO SUR,-74.11185981007476,4.541837289897332
1568,AK 86 N0. 42B-51 SUR L 2-165/166/167,Instituciones - IPS,800233471,110010548026,1706,SERVIOFTALMOS CC MILENIO PLAZA,-74.16905702014667,4.629656520220344
1574,KR 17 A # 105 - 70,Instituciones - IPS,900040590,110011479601,1734,NEW IMAGE AESTHETIC SURGERY LTDA,-74.04891386996971,4.691651899673992
1581,CL 106 # 17 45,Instituciones - IPS,800006602,110010872001,1755,CLINICA AVELLANEDA HERNANDEZ S.A.S.,-74.04868240017213,4.69144699022176
1582,CRA 23 137 57,Instituciones - IPS,900462440,110012280701,1756,VITALEM IPS SAS,-74.05025509960466,4.723194720140501
1591,CLL 93 No 19 B - 94,Instituciones - IPS,860015536,110010945607,1777,INTELLECTUS CENTRO DE MEMORIA Y COGNICION,-74.05648680974865,4.679366490069415
1592,CL 38 C SUR # 78 P 03,Instituciones - IPS,830117759,110010917702,1778,CLINICA DEL SENO IPS LTDA SEDE KENEDY,-74.1563039300105,4.624114439554528
1598,Calle 101 No.45a-42,Instituciones - IPS,860005114,110011509903,1788,LINDE COLOMBIA AGENCIA PROGRAMA LISA BOGOTA,-74.05802965007945,4.687808300415578
1600,CALLE 119 N. 7 - 14 CONS 821,Instituciones - IPS,900461704,110012312001,1793,HEMOSERVICES SAS,-74.03217476986494,4.696330549901459
1606,KR. 11 A N° 97- 55 CS 201 AL 208 PI 1,Instituciones - IPS,900484802,110012336801,1807,CLINICA CATAÑO & MARQUEZ,-74.04534720974542,4.681069009908698
1609,Calle 127 Nº 21-85,Instituciones - IPS,860013570,110010559722,1813,Centro de Atencion en Salud CAFAM Calle 127,-74.05276103992124,4.7059599503099365
1611,CALLE 116 NO. 9-72 CONSULTORIO 603,Instituciones - IPS,800201018,110011048803,1815,CLINICA VASCULAR DE BOGOTA SEDE NORTE,-74.03610558015595,4.695180759920164
1613,CL 63 No. 13-34 PISO 6,Instituciones - IPS,900413988,110012208202,1821,IPS DE LAS AMÉRICAS CHAPINERO CALLE 63,-74.06379307026245,4.649640930229076
1616,KR 92 # 151 - 01 LC 201,Instituciones - IPS,860007336,110010817143,1828,CENTRO MEDICO COLSUBSIDIO SUBA,-74.0845232701902,4.747080859957889
1619,AK 19 No 151-75,Instituciones - IPS,900407148,110012384501,1844,LAFAM CLINICA OFTALMOLOGICA,-74.05139492964786,4.691846439642922
1620,Kra 12 No 82 - 02 Lc 283,Instituciones - IPS,900407148,110012384508,1851,LAFAM OPTICAS,-74.05314989994648,4.666755639962702
1621,CL 19 # 28 80 LC A - 29,Instituciones - IPS,900407148,110012384511,1854,LAFAM OPTICAS,-74.0865707301487,4.617069089720414
1622,Ac 170 No 68 - 01 Lc 14,Instituciones - IPS,900407148,110012384519,1862,LAFAM OPTICAS,-74.0633386296282,4.758377250190225
1623,Kr 32 No 17 B - 04 Lc 233/234,Instituciones - IPS,900407148,110012384520,1863,LAFAM OPTICAS,-74.0902719597992,4.617682800332967
1628,"Centro Comercial Unicentro, Entrada 2, Local 1-223",Instituciones - IPS,860048656,110010391603,1882,FUNDACION OFTALMOLOGICA NACIONAL,-74.04115094998289,4.702134470042189
1638,Carrera 40 No 24 D 07,Instituciones - IPS,900536325,110012427901,1919,PSQ SAS,-74.09070591974327,4.632545090304815
1640,CALLE 127A N° 7-53 CS 5001 5002 5003 5004 5005 5006,Instituciones - IPS,900374792,110012435201,1928,INSTITUTO NACIONAL DE OFTALMOLOGIA S.A.,-74.0286990595716,4.703578869752315
1642,CALLE 26A No. 33A - 28,Instituciones - IPS,900532504,110012436901,1932,DAVITA BOGOTA CENTRO LA 26,-74.08319001040844,4.631298190192081
1643,Calle 73 No 72a-09,Instituciones - IPS,900532504,110012436903,1934,DAVITA BOGOTA SANTA MARIA DEL LAGO,-74.09536722026039,4.688934429680328
1650,KR 19 C 90-30 PI 4,Instituciones - IPS,800117564,110010793903,1965,UNIDAD MATERNO FETAL CLINICA DE LA MUJER S.A.S.,-74.05700350992028,4.67714128962589
1651,"CL 147 # 101 - 56 Locales 324, 325, 329 y 330.",Instituciones - IPS,860007336,110010817146,1968,PUNTO DE ATENCION EN SALUD SUBA,-74.09287068979641,4.744519389842132
1656,CRA 20 # 23-04 SUR,Instituciones - IPS,800149453,110010917816,1978,TORRE 6 - CPO,-74.10539564018977,4.58297406003962
1662,CR 21 NO. 166 34,Instituciones - IPS,800251440,110012482602,2001,UNIDAD DE ATENCION PRIMARIA TOBERIN,-74.04415845026533,4.746944489873148
1663,AK 19 N° 120 - 71 Of 101,Instituciones - IPS,860002541,110010936107,2004,SERVICIO DE OTORRINOLARINGOLOGIA - 122,-74.04981230023819,4.701329399863741
1664,Calle 24 NO 29 61 CONS 130 131,Instituciones - IPS,830120157,110011429101,2007,COLOMBIANA DE TRASPLANTES HOSP MAYOR,-74.0821972902728,4.623825450162558
1674,AK. 68 N. 31 - 41 SUR PI 1,Instituciones - IPS,860066942,110010733546,2046,SEDE SAMU ALQUERIA,-74.13094421016375,4.6070815797035305
1683,Carrera 7 C No 123 - 65,Instituciones - IPS,860450371,110010647902,2084,CENTRO DE DIAGNOSTICO Y DE CIRUGÍA AMBULATORIA USANAR LTDA,-74.03239114976239,4.7002038698601405
1685,Calle 95 N° 23-61,Instituciones - IPS,900291018,110012529701,2091,CLINICA LOS NOGALES SAS,-74.05708075964483,4.682918130117
1688,calle 119 No. 7-14 (Segundo Piso),Instituciones - IPS,860037950,110010561808,2101,Centro integral diagnostico de la mujer,-74.0322896302538,4.696165870317598
1689,"Cra 7B Bis N° 132 - 38 EDIFICIO FOREST MEDICAL CENTER, PISO 3 Y UNIDADES 401,402,403,404,405",Instituciones - IPS,900033752,110011507017,2103,Oftalmohelp Qx,-74.03022605990898,4.7110180202013545
1690,CL 166 N 22 68 P 1,Instituciones - IPS,800251440,110012482607,2106,UNIDAD DE SALUD MENTAL TOBERIN,-74.04589329021674,4.7471197703991574
1697,CARRERA 16 No 82 - 32,Instituciones - IPS,830005028,110010959909,2115,CENTRO DIAGNOSTICO - CLINICA DEL COUNTRY,-74.05674433967262,4.668119930114554
1698,AVENIDA 19 NUMERO 102 - 31 LOCAL 1-4,Instituciones - IPS,800017308,110010778802,2116,CLINICA LA SABANA S.A,-74.05221319965027,4.688004719815471
1706,Cra 15# 83-33 PISO 4 Y 5,Instituciones - IPS,900067918,110012565401,2132,Clinica Dhara,-74.05616704993169,4.66872079034921
1713,AK 45 No. 145 - 24 P1-2-3,Instituciones - IPS,860066942,110010733550,2168,UNIDAD DE SERVICIOS CALLE 145,-74.04957142957117,4.727357420040493
1717,cra 5 no 15 80 piso 2,Instituciones - IPS,860013570,110010559727,2177,Centro de Atención en Salud Cafam Procuraduría,-74.07143303963295,4.601315840264245
1718,"DIAGONAL 45 D 20-22 CONSULTORIOS 1,2,3",Instituciones - IPS,860066191,110011005815,2179,MEDICOS ASOCIADOS SALUD OCUPACIONAL,-74.0853941599087,4.630269529588285
1726,AVENIDA LAS AMERICAS No 61-43,Instituciones - IPS,900219120,110011908604,2206,VIVA 1A IPS LAS AMERICAS,-74.11694690035847,4.627748500283307
1728,calle 49 N° 13 -61,Instituciones - IPS,900219120,110011908606,2229,VIVA 1A IPS MARLY,-74.0661170900559,4.636132760376783
1729,AC 161 No.20-76,Instituciones - IPS,900219120,110011908607,2230,VIVA 1A IPS TOBERIN,-74.04522553024525,4.7415014001060625
1730,AK 45 NO. 123 14,Instituciones - IPS,800251440,110012482611,2235,UNIDAD DE ATENCION PRIMARIA SANTA BARBARA,-74.05365313976192,4.704355659628111
1731,AV. PRIMERO DE MAYO No. 34 - 41 Sur P1 y MN,Instituciones - IPS,860066942,110010733551,2236,SEDE CARRERA 30,-74.11312709039554,4.595088549856181
1743,KR 43 # 13 66/70,Instituciones - IPS,860007336,110010817149,2270,CENTRO INTEGRAL DE DIAGNOSTICO COLSUBSIDIO,-74.1012636602757,4.623900399813387
1744,CALLE 13 17 21,Instituciones - IPS,900702981,110012688701,2275,NATIONAL CLINICS CENTENARIO SAS,-74.08281194992954,4.605925729791416
1745,Cl 54 F Sur # 93 C 18 LC 251,Instituciones - IPS,860007336,110010817150,2276,CENTRO MEDICO COLSUBSIDIO PORVENIR,-74.18861664968222,4.634831330031601
1765,Transversal 73D # 39A - 62 sur piso 3 y 4,Instituciones - IPS,900123436,110012183202,2332,SIES SALUD KENNEDY,-74.15144184973917,4.617306209561496
1766,CL 146 A NO. 106 - 20 -LC 1- 10 CC PLAZA IMPERIAL,Instituciones - IPS,900407148,110012384523,2333,LAFAM OPTICAS,-74.09563165014404,4.748537520211498
1767,CR 71 D NO. 6 94 SUR LC 1025 PLAZA DE LAS AMERICAS,Instituciones - IPS,900407148,110012384524,2334,Multiopticas,-74.13537804018294,4.61816430031461
1768,CL 185 NO. 45 - 03 LC 2 - 97 CC SANTA FE,Instituciones - IPS,900407148,110012384529,2339,LAFAM OPTICAS,-74.04647173968272,4.7622641598493844
1769,CL 20 NO. 82 - 52 L 1 - 88 CC HAYUELOS,Instituciones - IPS,900407148,110012384533,2343,LAFAM OPTICAS,-74.13115637965744,4.663198779652938
1770,CL 185 NO 45 - 03 LC 1-33 CC SANTA FE,Instituciones - IPS,900407148,110012384539,2349,Grand Vision By Lafam,-74.04647173968272,4.7622641598493844
1771,AV 15 NO. 123 - 30 LC 229 CC UNICENTRO,Instituciones - IPS,900407148,110012384540,2350,LAFAM OPTICAS,-74.04115094998289,4.702134470042189
1772,Cl. 53B No. 25-21 Lc 1018/1019 CC GALERIAS,Instituciones - IPS,900407148,110012384544,2354,LAFAM OPTICAS,-74.13834595979561,4.577911770233646
1773,AV 27 NO. 38A - 83 SUR LC 1 - 012 CC CENTRO MAYOR,Instituciones - IPS,900407148,110012384546,2356,Multiopticas,-74.12376211029694,4.584329940441566
1775,CL 146 A NO. 106 - 20 LC 1-10 CC PLAZA IMPERIAL,Instituciones - IPS,900407148,110012384550,2363,MULTIOPTICAS No. 13,-74.09563165014404,4.748537520211498
1784,CL 139 NO. 94 55 LC 3,Instituciones - IPS,830027558,110010231716,2390,IMEVI LTDA,-74.08741555974079,4.737463229888946
1791,KRA 28 N° 63 A SUR - 40,Instituciones - IPS,900536325,110012427902,2406,PSQ SAS SEDE 2,-74.14924090003797,4.568860009841193
1792,Calle 38 No.15-53,Instituciones - IPS,800049104,110012329302,2418,Colmedicos Bogota Teusaquillo,-74.07042103985468,4.626328559701787
1793,Carrera 18 84-11 cons402,Instituciones - IPS,900354784,110012756901,2421,Emdiagnostica SAS,-74.05756643020993,4.669940130325412
1805,AV BOYACA No. 64 F 92,Instituciones - IPS,900537136,110012768201,2448,Cinthev,-74.1016012300915,4.678166150019469
1808,AV CALLE 134 No 7-83 OFICINA 312 TORRE 3 PISO 1 MODULO 2,Instituciones - IPS,900800086,110012770901,2451,CLINICA 134 SAS,-74.02988025972857,4.711481560440283
1814,CARRERA 46 No 22 B - 20 LOCAL 04,Instituciones - IPS,830018305,110010919913,2475,JAVESALUD ALLIANZ SALITRE,-74.09587364999338,4.63468827014349
1819,CL 53 # 67 B - 35 PI 1,Instituciones - IPS,860066942,110010733556,2483,SEDE CALLE 53,-74.10045997981183,4.656822340297064
1845,CRA 85A # 44-09 SUR LC 5 Y 6 CC PORTAL SAN BASILIO,Instituciones - IPS,900033752,110011507019,2539,OPTICA UNIVER SAN BASILIO,-74.17183781978736,4.627376740102545
1847,KR 18 # 84 11 CONS 605-1,Instituciones - IPS,900639938,110012834201,2545,CMG CIRUGIAGASTRO,-74.05756643020993,4.669940130325412
1857,CR 32 No. 25B 90,Instituciones - IPS,900219120,110011908611,2582,VIVA 1A IPS CALLE 26,-74.08220534007606,4.628276309955416
1859,Carrera 17 N° 90 - 13,Instituciones - IPS,860013570,110010559730,2593,Centro de Atención en Salud Cafam Calle 90,-74.0545912198704,4.675456359660089
1861,Cra. 7 No 6 C 54 Piso 3,Instituciones - IPS,860007336,110010817152,2598,CONSULTORIO DE EMPRESA DIAN NIVEL CENTRAL,-74.07731458019099,4.593911759664639
1864,CR 58 NO. 137A-36 P2,Instituciones - IPS,900618930,110012576405,2607,FURINKAZAN COLINA,-74.06455505003252,4.727165719919928
1865,AC 116 NO. 9 72 P 6 OF 602,Instituciones - IPS,900496641,110012347105,2611,CLINICOS PROGRAMAS DE ATENCIÓN INTEGRAL S.A.S IPS,-74.03610558015595,4.695180759920164
1868,CL 118 19 52 CS 403 CS 508,Instituciones - IPS,900315796,110012056801,2615,UROCENTER LTDA,-74.05040840968432,4.699781800228481
1871,TV 21A No 21-26 sur,Instituciones - IPS,900394071,110012175703,2620,ODONTOLAY RESTREPO,-74.10400319041395,4.584349390323331
1874,CALLE 134 # 7 B 83 LOCAL 21 Y CS 907,Instituciones - IPS,900803400,110012885501,2638,VIVE VITAL BELLA SUIZA,-74.03207532995624,4.711859999597484
1879,CRA 65 A N 98-94,Instituciones - IPS,900870114,110012886301,2643,CIFES SAS,-74.06980807981046,4.689386439609536
1882,carrera 50 no 106 - 22,Instituciones - IPS,900268120,110012182101,2652,SALUS GLOBAL PARTNERS GC S.A.S SIGLA SALUS GP S.A.S,-74.06042649000477,4.695042510245087
1885,Carrera 19 a Nº 82 - 85 cons 607,Instituciones - IPS,900676520,110012900301,2664,Cliniderma sas,-74.05886613971246,4.669930030072745
1886,Avenida las Americas # 70a-37,Instituciones - IPS,900231793,110012900901,2666,DIALY SER AMERICAS,-74.13132885978526,4.629607389587193
1887,Autopista Norte Nº 118 - 79 consultorio 11,Instituciones - IPS,900536325,110012427905,2668,PSQ SEDE 7,-74.05522037025098,4.701507079667886
1890,Av. Carrera 60 No.24-09 Local 1-27,Instituciones - IPS,900759454,110012790504,2674,DENTIX BOGOTA GRAN ESTACIÓN,-74.10296886031435,4.64636393035293
1894,CALLE 100 NO. 19-05,Instituciones - IPS,800215908,110010485719,2690,CENTRAL DE URGENCIAS Y ESPECIALISTAS CALLE 100 ESIMED,-74.0524161497342,4.685508019901715
1895,CARRERA 17 # 24 - 44,Instituciones - IPS,800215908,110010485727,2695,CLINICA ESIMED CENTRO,-74.07483359956457,4.613901830089392
1896,AUTONORTE NO.94-31,Instituciones - IPS,800215908,110010485728,2700,UNIDAD INTEGRAL DE ALTO RIESGO OBSTETRICO ESIMED,-74.05837009001256,4.6823865796123005
1900,AC 147 # 19 50 LOCAL 6 Y 31,Instituciones - IPS,900393235,110012916301,2713,EMBELLECETE SAS,-74.04627322008974,4.7301398697683865
1902,carrera 17 # 58A-38,Instituciones - IPS,830053316,110011114003,2715,CLINICA LAING,-74.06811163026101,4.646104899966841
1903,CALLE 35 C SUR # 75 69,Instituciones - IPS,830507718,110012215002,2719,MEDICAL PRO&NFO S.A.S.,-74.14920435028401,4.622222249571094
1905,Cra 19C #90-14 CONSULTORIOS 201 AL 209,Instituciones - IPS,800117564,110010793904,2724,Centro de Fertilidad Clínica de la Mujer,-74.05729847982867,4.676778880327035
1910,CL 14 NO. 62 - 04 Y CR 62 NO. 14 - 41,Instituciones - IPS,800251440,110012482616,2734,EPS SANITAS UNIDAD DE URGENCIAS PUENTE ARANDA,-74.11251074010943,4.634057570132011
1911,CARRERA 45 NO 103 65,Instituciones - IPS,800149384,110010918653,2735,CLINICA COLSANITAS 103,-74.05705118980062,4.690372430213911
1912,"AVENIDA CARRERA 45 N° 94- 15/23/27 piso 3, 4, 5, 6.",Instituciones - IPS,800003765,110010952322,2736,VIRREY SOLIS IPS S.A NORTHWEST,-74.058415359713,4.682105670208597
1920,CARRERA 111 A NO 86 74 LOCAL 101,Instituciones - IPS,860007336,110010817153,2758,CONSULTORIO MÉDICO COLSUBSIDIO UNICENTRO OCCIDENTE,-74.11265413009339,4.722307100406986
1923,CALLE 30 A N. 6 - 75 Piso 8 Torre Sur Bancolombia.,Instituciones - IPS,811007832,110010778213,2778,Consultorio Empresarial Salud Sura Calle 100,-74.06813943042411,4.616506079759942
1924,CL 44 # 58 05,Instituciones - IPS,830041314,110012311805,2782,CIRUGIA AMBULATORIA HOSPITAL CENTRAL DE LA POLICIA,-74.09489379013935,4.6476849800807924
1926,CARRERA 66 # 67G-30,Instituciones - IPS,900900122,110012894202,2787,HEALTH & LIFE IPS SAS SEDE JJ VARGAS,-74.08493218959573,4.675569210127117
1927,CR 18 NO. 16 - 46 SUR,Instituciones - IPS,800251440,110012482617,2790,EPS SANITAS CENTRO MEDICO RESTREPO,-74.10022842018273,4.585568210319045
1930,CR 19 NO. 120 -71 LC 9 EDF BANCO TORRE FALABELA,Instituciones - IPS,811007832,110010778214,2794,IPS SURA PUNTO DE VISTA SANTA BARBARA,-74.04981230023819,4.701329399863741
1933,Carrera 100 A # 141 - 10,Instituciones - IPS,860049972,110010893006,2802,ORIENTAME - SEDE SUBA,-74.09212179039518,4.742161500404885
1934,CALLE 74 A # 22 - 31,Instituciones - IPS,860015905,110010572506,2807,SAN FELIPE APOSTOL,-74.06460969005968,4.664312690378128
1937,TV 17A # 1-21,Instituciones - IPS,900589178,110012495804,2819,REMY IPS- SAN LUCAS,-74.09009105976222,4.592599640161508
1942,CLE 185 # 45 - 03 LC N2 - 176,Instituciones - IPS,900759454,110012790508,2831,DENTIX CC SANTAFE BOGOTA,-74.04492278002819,4.763300349670851
1944,CALLE 11 SUR NUMERO 1 B-10 E,Instituciones - IPS,900959051,110013028903,2838,UNIDAD DE SERVICIOS DE SALUD DESPERTAR,-74.08032944037053,4.574823999704225
1945,CARRERA 12 A ESTE NUMERO 42-32 SUR,Instituciones - IPS,900959051,110013028904,2839,UNIDAD DE SERVICIOS DE SALUD ALTAMIRA,-74.08474815982832,4.546063280235516
1946,CARRERA 5 NUMERO 33 A-45,Instituciones - IPS,900959051,110013028915,2845,UNIDAD DE SERVICIOS DE SALUD PERSEVERANCIA,-74.06550890006582,4.619988159994673
1947,CARRERA 23 NUMERO 22 A -26,Instituciones - IPS,900959051,110013028916,2846,UNIDAD DE SERVICIOS DE SALUD SAMPER MENDOZA,-74.08104275031683,4.616991209597648
1948,CARRERA 21 NUMERO 22-51 SUR,Instituciones - IPS,900959051,110013028920,2850,UNIDAD DE SERVICIOS DE SALUD OLAYA,-74.10503359038418,4.584190979567926
1949,CALLE 35 B SUR NUMERO 25 A-37,Instituciones - IPS,900959051,110013028921,2851,UNIDAD DE SERVICIOS DE SALUD BRAVO PAEZ,-74.1201061701098,4.583690800072523
1950,CALLE 31 B SUR NUMERO 23 B-14,Instituciones - IPS,900959051,110013028923,2852,UNIDAD DE SERVICIOS DE SALUD QUIROGA,-74.11348589009643,4.58207931037765
1951,CARRERA 32 NUMERO 12-81 Edificio Hemocentro piso 4,Instituciones - IPS,900959051,110013028927,2854,UNIDAD DE SERVICIOS DE SALUD CITOCENTRO,-74.09393823959522,4.615242650043968
1952,CALLE 75 # 69 H - 08,Instituciones - IPS,900971006,110013029105,2862,UNIDAD DE SERVICIOS DE SALUD FERIAS,-74.08623682995086,4.685978129896145
1953,CALLE 83 # 85 A - 17,Instituciones - IPS,900971006,110013029113,2867,UNIDAD DE SERVICIOS DE SALUD ESPAÑOLA,-74.09908165963711,4.7045002702733605
1954,KR 104 Nº 152C-50,Instituciones - IPS,900971006,110013029114,2868,UNIDAD DE SERVICIOS DE SALUD CENTRO DE SERVICIOS ESPECIALIZADO,-74.09175639975504,4.7534265201695955
1955,CARRERA 94B Nº129B-04,Instituciones - IPS,900971006,110013029118,2872,UNIDAD DE SERVICIOS DE SALUD RINCON,-74.0931433796891,4.726053680375908
1956,TRANSVERSAL 126 Nº133-38,Instituciones - IPS,900971006,110013029119,2873,UNIDAD DE SERVICIOS DE SALUD GAITANA II,-74.10962048973452,4.7414448504125675
1957,CRA 18 A # 187-91,Instituciones - IPS,900971006,110013029132,2882,UNIDAD DE SERVICIOS DE SALUD VERBENAL,-74.03966663040129,4.766052850266702
1958,KR 18 A BIS No. 60 G 20 SUR,Instituciones - IPS,900958564,110013029404,2890,UNIDAD DE SERVICIOS DE SALUD MEISSEN APOYO DIAGNOSTICO,-74.13794207993882,4.559271879763097
1959,AK 54 No. 47A - 08 SUR,Instituciones - IPS,900958564,110013029405,2891,UNIDAD DE SERVICIOS DE SALUD VENECIA,-74.14151263974978,4.593079309850445
1960,AV CARACAS No. 51 - 21 SUR,Instituciones - IPS,900958564,110013029407,2893,UNIDAD DE SERVICIOS DE SALUD AMBULATORIA TUNJUELITO,-74.12548772005881,4.564123140389322
1961,DG 53 SUR No. 59 A - 11,Instituciones - IPS,900958564,110013029409,2895,UNIDAD DE SERVICIOS DE SALUD NUEVO MUZÚ,-74.14810165030643,4.5848294201503474
1962,CL 58 SUR No. 19 B - 25,Instituciones - IPS,900958564,110013029410,2896,UNIDAD DE SERVICIOS DE SALUD SAN BENITO,-74.1370072301721,4.5654103402896915
1963,DG 70 No. 56 - 56 SUR,Instituciones - IPS,900958564,110013029419,2900,UNIDAD DE SERVICIOS DE SALUD SIERRA MORENA,-74.16574274968629,4.578522830021946
1964,KR 42 No. 77 - 80 SUR,Instituciones - IPS,900958564,110013029421,2901,UNIDAD DE SERVICIOS DE SALUD POTOSÍ,-74.16851241021746,4.567966700352127
1965,CL 75 BIS A SUR No. 25 - 48,Instituciones - IPS,900958564,110013029422,2902,UNIDAD DE SERVICIOS DE SALUD CASA DE TEJA,-74.15556075018267,4.541858909817662
1966,CL 67 SUR No. 20 A - 51,Instituciones - IPS,900958564,110013029423,2903,UNIDAD DE SERVICIOS DE SALUD SAN FRANCISCO,-74.14941662038899,4.562345250070448
1967,TV 36 No. 59 B - 59 SUR,Instituciones - IPS,900958564,110013029426,2906,UNIDAD DE SERVICIOS DE SALUD CANDELARIA II,-74.14978541025417,4.571916950427048
1968,CL 64 C SUR No. 27 - 32,Instituciones - IPS,900958564,110013029429,2908,UNIDAD DE SERVICIOS DE SALUD CANDELARIA III,-74.14974365027156,4.568243850215439
1969,KR 9 B No. 75 - 49 SUR,Instituciones - IPS,900958564,110013029431,2910,UNIDAD DE SERVICIOS DE SALUD SANTA LIBRADA I,-74.11348180994841,4.514656460417614
1970,KR 10 No. 81 A - 06 SUR,Instituciones - IPS,900958564,110013029435,2914,UNIDAD DE SERVICIOS DE SALUD YOMASA,-74.1124807103278,4.508012690330578
1971,CL 68 B SUR No. 9 A - 29,Instituciones - IPS,900958564,110013029437,2915,UNIDAD DE SERVICIOS DE SALUD SANTA MARTHA,-74.11648904971939,4.526397830220126
1972,KR 14 B ESTE No. 74 B - 44 SUR,Instituciones - IPS,900958564,110013029438,2916,UNIDAD DE SERVICIOS DE SALUD LA FLORA,-74.08993558025114,4.5161553497873
1973,KR 14 C No. 73 D - 36 SUR,Instituciones - IPS,900958564,110013029440,2918,UNIDAD DE SERVICIOS DE SALUD SAN JUAN BAUTISTA,-74.11803903974155,4.516259740369802
1974,KR 14 A ESTE No. 92 - 35 SUR,Instituciones - IPS,900958564,110013029442,2919,UNIDAD DE SERVICIOS DE SALUD LOS ARRAYANES,-74.08600793023331,4.497607729905638
1975,Calle 19 A No. 34 - 94,Instituciones - IPS,900959048,110013029609,2931,Unidad de Servicios de Salud 35 Cundinamarca,-74.0915497701717,4.622794180270115
1976,Carrera 33 No. 1B - 27,Instituciones - IPS,900959048,110013029610,2932,Unidad de Servicios de Salud 36 Asunción Bochica,-74.1082027496885,4.602841629911424
1977,Calle 39 sur No. 89 C - 12,Instituciones - IPS,900959048,110013029612,2934,Unidad de Servicios de Salud 50 Mexicana,-74.16868755025683,4.639741679991408
1978,Calle 42 A sur No. 90 - 00,Instituciones - IPS,900959048,110013029615,2937,Unidad de Servicios de Salud 65 Dindalito,-74.17234084041387,4.639183340419982
1979,Carrera 78ª No. 53ª - 47,Instituciones - IPS,900959048,110013029621,2941,Unidad de Servicios de Salud 105 Catalina,-74.11160694959365,4.678384620334514
1980,Calle 65D sur # 79C-90,Instituciones - IPS,900959048,110013029623,2943,Unidad de Servicios de Salud Bosa,-74.18556142999356,4.606821060199901
1981,Carrera 99 No. 16i - 41,Instituciones - IPS,900959048,110013029625,2945,Unidad de Servicios de Salud Fontibón,-74.14617381001116,4.671713919922217
1982,Calle 18 A No 122 - 25,Instituciones - IPS,900959048,110013029626,2946,Unidad de Servicios de Salud 48 San Pablo,-74.1566521098281,4.688829980262385
1983,Carrera 97 No. 19-34,Instituciones - IPS,900959048,110013029629,2949,Unidad de Servicios de Salud Centro Día,-74.14158196992676,4.6724410096516085
1984,"Aeropuerto El Dorado Muelle Internacional, 2° piso, salida 5",Instituciones - IPS,900959048,110013029631,2951,Unidad de Servicios de Salud Terminal Aéreo,-74.15278711999628,4.68531690990414
1985,Dg. 23 #69-60 Módulo Verde - Local 416,Instituciones - IPS,900959048,110013029632,2952,Unidad de Servicios de Salud Terminal Terrestre,-74.11465542023956,4.655812319622921
1986,Calle 70 A sur N° 77 I - 26,Instituciones - IPS,900959048,110013029634,2954,Unidad de Servicios de Salud Pablo VI Bosa,-74.19173972002255,4.598883099827951
1987,Carrera 102 No 69-59 sur conjunto porvenir reservado 1,Instituciones - IPS,900959048,110013029635,2955,Unidad de Servicios de Salud El Recreo,-74.20273084018741,4.637229609561486
1988,Carrera 80 P #83 - 14 Sur,Instituciones - IPS,900959048,110013029638,2956,Unidad de Servicios de Salud El Jardín,-74.20698990027313,4.612847209709801
1989,Diagonal 91 sur No. 87 - 03,Instituciones - IPS,900959048,110013029639,2957,Unidad de Servicios de Salud El Toche,-74.2139538496631,4.614829649996014
1990,Calle 73 A SUR # 80 N -39,Instituciones - IPS,900959048,110013029645,2959,Unidad de Servicios de Salud Laureles,-74.19844912009864,4.6100022400968275
1991,Calle 70 A Sur # 81G-13,Instituciones - IPS,900959048,110013029647,2960,Unidad de Servicios de Salud Palestina,-74.19373376974752,4.612097679675952
1992,Calle 68 Sur #78H-20,Instituciones - IPS,900959048,110013029648,2961,Unidad de Servicios de Salud Piamonte,-74.18810077955388,4.602833980354327
1993,KR 45 C No. 69 - 21 SUR,Instituciones - IPS,900958564,110013029414,2965,UNIDAD DE SERVICIOS DE SALUD MANUELA BELTRÁN I,-74.15744247007297,4.572704869688708
1994,KR 18 F No. 72 - 45 SUR,Instituciones - IPS,900958564,110013029416,2966,UNIDAD DE SERVICIOS DE SALUD LA ESTRELLA,-74.14601989985691,4.544975730259929
1995,KR 1 No. 3 - 29 PASQUILLA,Instituciones - IPS,900958564,110013029417,2967,UNIDAD DE SERVICIOS DE SALUD PASQUILLA,-74.15545360991538,4.444947309672721
1996,CALLE 185 #45-03 LOCAL NI-085,Instituciones - IPS,890900650,110011114509,2970,OPTICA SANTA LUCIA BOGOTA SANTAFE,-74.04647173968272,4.7622641598493844
2001,AV 127 No 71-96,Instituciones - IPS,832001110,110011242501,7,A&G SERVICIOS DE SALUD S.A.S,-74.0775757213424,4.7104679516323795
2003,AV 1o. DE MAYO No 10 BIS - 22 SUR,Instituciones - IPS,860066942,110010733513,11,UNIDAD DE SERVICIOS AVENIDA PRIMERO DE MAYO,-74.09511669989058,4.576309413658965
2009,"Cra 16 N 84 a 09 consultorio 412, 621, 622, 623",Instituciones - IPS,900545277,110012485601,37,Oftalmover S.A.S,-74.05643813722993,4.669929491977543
2013,CARRERA 18 # 136 A - 26,Instituciones - IPS,820002596,110012956701,53,OPTICLINICAS BOGOTA,-74.04491657177127,4.721065336882494
2024,CALLE 37 BIS B SUR NUMERO 3-25 ESTE,Instituciones - IPS,900959051,110013028907,76,UNIDAD DE SERVICIOS DE SALUD LA VICTORIA 1,-74.09403615596118,4.553549051329619
2025,TRANSVERSAL 10 B ESTE NUMERO 36 D-13 SUR,Instituciones - IPS,900959051,110013028908,77,UNIDAD DE SERVICIOS DE SALUD LOS ALPES,-74.08367757911375,4.553906204410285
2026,CALLE 1 C NUMERO 5 A 30,Instituciones - IPS,900959051,110013028911,78,UNIDAD DE SERVICIOS DE SALUD CRUCES,-74.07947713499863,4.586664690759057
2027,Carrera 72 A BIS # 57 - 13 SUR,Instituciones - IPS,900959048,110013029646,81,Unidad de Servicios de Salud Olarte,-74.16527321555864,4.600330248945872
2029,CR 19 Nº. 84-09,Instituciones - IPS,800233471,110010548028,91,CENTRO DE INVESTIGACIÓN EUREKA,-74.05816232675532,4.67005355558891
2033,Carrera 66 No 12 - 91,Instituciones - IPS,800049104,110012329304,101,COLMEDICOS BOGOTA SEDE MONTEVIDEO,-74.11780934142172,4.635338443148886
2038,Carrera 20 # 15- 19/ 21 - 25 Sur,Instituciones - IPS,900407148,110012384558,128,LAFAM OPTICAS,-74.10088467992198,4.587475323559808
2040,KR 7 # 43 - 82 EDF 53 JESÚS EMILIO RAMIREZ LAB 303 A,Instituciones - IPS,860015536,110010945610,136,HOSPITAL UNIVERSITARIO SAN IGNACIO LABORATORIO CLINICO DE ERRORES INNATOS DEL METABOLISMO,-74.06344857713077,4.630614338114498
2042,CL 39 No. 14 - 46 PI 1,Instituciones - IPS,860066942,110010733562,141,CONSULTORIO EMPRESARIAL ORQUESTA FILARMONICA DE BOGOTA,-74.06870585234674,4.6267870763647725
2046,Transversal 45 No 118 - 59,Instituciones - IPS,830027558,110010231719,156,SEDE 118 SALUD VISUAL,-74.06458138684003,4.702599181867801
2049,CALE 50 No. 9 - 67 CONSULTORIO 407,Instituciones - IPS,900496641,110012347107,166,CLINICOS Programas de Atención Integral S.A.S IPS,-74.0650620951115,4.636624952918849
2050,Cra 17 No 36 62,Instituciones - IPS,830041883,110010965202,169,FUNDACION PARA LA SALUD LA BIOETICA Y EL MEDIO AMBIENTE FUNSABIAM,-74.07157090318128,4.625612670266856
2051,CARRERA 19C # 90-14 CONSULTORIO 604,Instituciones - IPS,800117564,110010793905,172,CONSULTORIO ESPECIALISTAS CM (ANESTESIOLOGOS CLINICA DE LA MUJER),-74.05723194161558,4.676863747222235
2055,AK 20 87 33,Instituciones - IPS,800160827,110010039601,191,CLINICA RETORNAR,-74.05970272995677,4.6756005698114675
2080,CRA 21 # 100 -20 CS 701,Instituciones - IPS,860048345,110010245701,273,SOCIEDAD DE OFTALMOLOGIA EDUARDO ARENAS ARCHILA,-74.05426144024474,4.686728000339373
2082,CALLE 39 No. 14-34,Instituciones - IPS,860502092,110010303101,282,NUEVA CLINICA MAGDALENA,-74.0692003497578,4.627057909669885
2083,CALLE 50 # 13 50,Instituciones - IPS,860048656,110010391601,284,FUNDACION OFTALMOLOGICA NACIONAL,-74.0659540503234,4.6374692001506475
2084,CRA 16 # 84A 09 CONS 719 y 705,Instituciones - IPS,830002198,110010303501,286,EXILASER S.A,-74.05643813992486,4.669929490186875
2086,AC 32 # 15 31,Instituciones - IPS,830090073,110010315501,291,ASOCIACION DE AMIGOS CONTRA EL CANCER PROSEGUIR,-74.07137960963648,4.620648920230281
2099,KR 12D 32- 44 SUR,Instituciones - IPS,860007373,110010413101,327,FUNDACION HOSPITAL SAN CARLOS,-74.10547682004366,4.570180720065708
2102,KR 89 A No.77A - 50,Instituciones - IPS,800215908,110010485703,343,CAFI CALLE 80,-74.10363502038633,4.7037669898518235
2103,KR 18 No.15 - 30 SUR,Instituciones - IPS,800215908,110010485708,345,CAFI RESTREPO,-74.0996038404303,4.586582920211044
2104,CL 26 SUR 78 07,Instituciones - IPS,800215908,110010485709,346,CAFI KENNEDY,-74.14727246038342,4.6246878998439716
2105,AVENIDA 19 No. 106 -30,Instituciones - IPS,800215908,110010485714,348,CAFI CALLE 106,-74.05054040992879,4.692943749734161
2106,AK 9 # 116 20 CS 404-406-408-410-412-428,Instituciones - IPS,800227333,110010452901,349,REPROTEC CENTRO DE FERTILIDAD,-74.03404788030151,4.694850510241324
2110,CRA 16 # 82 29 PI 7,Instituciones - IPS,800075619,110010507601,362,UNIDAD DE FERTILIDAD DEL COUNTRY LTDA,-74.05703557977593,4.668343600086108
2115,CL 90 # 16 29 PISO 3,Instituciones - IPS,830077823,110010550801,382,INNOVA CIRUGIA PLASTICA ESTETIC A LTDA,-74.0542592097279,4.674766120239575
2122,AK 45 # 95 54,Instituciones - IPS,860053761,110010598901,414,CLINICA DE OJOS (CLINOJOS) LTDA,-74.05711871975379,4.68368940994105
2123,"CRA 45 No. 106-30, PISO 2, ALA ORIENTE, UNIDAD RENAL",Instituciones - IPS,805011262,110010683404,416,RTS AGENCIA NAVARRA,-74.05557476012216,4.693945930439348
2129,AK 45 # 118 86 PI 7,Instituciones - IPS,830089570,110010631901,431,CIENCIA Y ESTETICA CIRUGIA PLASTICA,-74.05401107977507,4.702209430139256
2131,AC 1 SUR No 9-85,Instituciones - IPS,899999092,110010606501,437,INSTITUTO NACIONAL DE CANCEROLOGIA - EMPRESA SOCIAL DEL ESTADO,-74.08451830969321,4.588318900335987
2135,KR 14 A # 163 A 98,Instituciones - IPS,805011262,110010683401,444,RTS SUCURSAL CARDIOINFANTIL,-74.03493764991235,4.74235078996494
2153,CRA 11 # 69 81,Instituciones - IPS,860043998,110010735701,493,OPTICENTRO INTERNACIONAL,-74.06060610994247,4.654890630273335
2154,KR 15 # 123 30 LC 2-259,Instituciones - IPS,860043998,110010735708,497,OPTICENTRO INTERNACIONAL UNICENTRO,-74.04115094998289,4.702134470042189
2155,AV 7 # 123 65 PI 3,Instituciones - IPS,860043998,110010735713,498,OPTICENTRO INTERNACIONAL USAQUEN,-74.02953683020219,4.6991496304380895
2156,TV 78 H # 41 C 48 SUR,Instituciones - IPS,860066942,110010733502,502,UNIDAD DE SERVICIOS KENNEDY,-74.15845564035604,4.615737469889209
2157,CALLE 71 # 10 92,Instituciones - IPS,860079997,110010732101,506,CLINICA DE TRAUMATOLOGIA Y ORTOPEDIA,-74.0590583702001,4.656483299892544
2158,AV 19 # 102 - 53 PISO 1 y Piso 7,Instituciones - IPS,800017308,110010778801,507,CLINICA LA SABANA S.A,-74.05200354004948,4.6882720199330326
2159,CALLE 46 # 13 13,Instituciones - IPS,800048248,110010756401,508,INSTITUTO DE CIRUGIA OCULAR PALERMO,-74.06656832011132,4.633033379697655
2160,CRA 76 # 73 35,Instituciones - IPS,800085486,110010802402,513,CLINICA PARTENON CONSULTA EXTERNA,-74.09795765970586,4.6918972598423245
2164,CALLE 83 No. 19-36 PI 4o.,Instituciones - IPS,800172517,110010764801,524,CLINICA IZKA SAS,-74.05849262021731,4.670003140284223
2178,CLL 26 NO. 24 34 PIS 2 CONS 1 Y 2,Instituciones - IPS,860043998,110010735716,549,OPTICENTRO INTERNACIONAL SUPERMERCADO CL. 26,-74.0773371800069,4.622253319731507
2181,AK 19 # 114 87,Instituciones - IPS,860514752,110010795001,554,INSTITUTO DE ORTOPEDIA Y CIRUGIA PLASTICA SAS,-74.05043695994067,4.697706250243506
2183,AC 127 # 21 60 CS 101,Instituciones - IPS,800169802,110010832601,556,OSTRAUMA LTDA,-74.05245103041837,4.7070249801480815
2184,DG 54 # 16 A 16,Instituciones - IPS,800227072,110010822201,558,CLINICA MATERNO INFANTIL EUSALUD,-74.06868436015357,4.642465830032938
2188,CALLE 67 # 10 - 27,Instituciones - IPS,860007336,110010817102,566,CLINICA INFANTIL COLSUBSIDIO,-74.06108623969888,4.65211829006517
2193,AK 19 No. 100-88,Instituciones - IPS,800149169,110010857501,581,IPS CLINICA JOSE A RIVAS S.A. OTORRINOLARINGOLOGIA,-74.05152383968776,4.687231600411793
2198,Calle 45 C No. 22-02,Instituciones - IPS,860006745,110010895201,609,CLINICA PALERMO,-74.07388487980985,4.636174339850413
2199,CL 80 BIS # 94 K 40,Instituciones - IPS,860013779,110010899502,611,"ASOCIACION PROBIENESTAR DE LA FAMILIA COLOMBIANA ""PROFAMILIA""",-74.1085854598473,4.707357859775821
2201,KR 17 No. 39B - 04,Instituciones - IPS,800074904,110010918501,627,CLINICA SANTA CATALINA,-74.07078707009529,4.628904120341889
2202,KR 70 C #115 A 15,Instituciones - IPS,800149384,110010918604,631,CLINISANITAS MORATO,-74.07204376017717,4.698928079636221
2203,AK 45 No. 108 a 50 PISO 3,Instituciones - IPS,800149384,110010918605,632,CLINISANITAS DIAGNOSTICO,-74.05506955030131,4.69605412976604
2204,CRA 21 # 40 77,Instituciones - IPS,800149384,110010918606,633,ODONTOSANITAS,-74.07390677983817,4.631173989923602
2205,CRA 45 No 93-79,Instituciones - IPS,800149453,110010917807,640,CASTELLANA CPO,-74.05869255016525,4.681476120233066
2209,AK 45 # 123 - 60/24,Instituciones - IPS,830018305,110010919901,649,JAVESALUD SANTA BARBARA,-74.05359635006627,4.705061379776856
2210,Calle 134 No. 7B-83 of. 513-514-515-516-517 y 411,Instituciones - IPS,830023136,110010962901,650,LASER CENTER S.A,-74.03210385955136,4.712466790126343
2211,"AC 127 No. 16A - 27 CS 410,411,416,417,501,502,507,508,509,510,511",Instituciones - IPS,830043220,110010965101,651,FOQUS IPS SAS,-74.04495855992594,4.704207049695995
2214,CALLE 45 A # 27 20,Instituciones - IPS,830103663,110010961201,660,CENTRO DE ESPECIALIDADES MEDICO QUIRURGICAS LTDA,-74.07758500004097,4.6349898100828675
2215,CARRERA 11 D N 119-21,Instituciones - IPS,830104410,110010966701,661,EVOLUTION MEDICAL CENTER,-74.03856191011265,4.698652229939038
2217,CL 50 # 9 67,Instituciones - IPS,860002541,110010936101,664,CLINICA DE MARLY,-74.06506208972162,4.636624950232704
2218,CL 50 # 9 16,Instituciones - IPS,860002541,110010936103,665,SERVICIO DE RESONANCIA MAGNETICA,-74.06451880031588,4.637409059640654
2219,"CALLE 50 # 7 36, PISO 7, PISO 5, PISO 2 CONSULTORIOS 2, 3, 5",Instituciones - IPS,860002541,110010936105,666,CLINICA DE MARLY S.A,-74.06397051987042,4.636920239627493
2220,CRA 7 # 40 62,Instituciones - IPS,860015536,110010945601,668,HOSPITAL UNIVERSITARIO SAN IGNACIO,-74.06429083035465,4.628459450401097
2223,KR 13 B # 161 85,Instituciones - IPS,800180553,110011025101,678,FUNDACION NEUMOLOGICA COLOMBIANA,-74.03440922043804,4.740787460221625
